STATION,LATITUDE,LONGITUDE,ELEVATION,NAME,filename,latlon,name,admin1,admin2,cc
57328099999,31.2,107.5,344.0,"DA XIAN, CH",57328099999,"(31.2, 107.5)",Nanwai,Sichuan,,CN
71393099999,51.1,-114.0,1081.0,"CALGARY INTERNATIONAL CS, CA",71393099999,"(51.1, -114.0)",Calgary,Alberta,,CA
72210103039,37.45,-106.8,3593.9,"WOLF CREEK PASS, CO US",72210103039,"(37.45, -106.8)",Pagosa Springs,Colorado,Archuleta County,US
71670099999,46.77,-65.0,34.0,"KOUCHIBOUGUAC CS, CA",71670099999,"(46.77, -65.0)",Richibucto,New Brunswick,,CA
40632099999,34.8833333,44.65,220.0,"TUZ, IZ",40632099999,"(34.8833333, 44.65)",Tozkhurmato,Salah ad Din Governorate,,IQ
95658099999,-30.4833333,136.8833333,100.0,"OLYMPIC DAM AERODROME, AS",95658099999,"(-30.4833333, 136.8833333)",Roxby Downs,South Australia,Roxby Downs,AU
89266099999,-72.2,-60.1666666,115.0,"UNIVERSITY WI ID 8902 BUTLER ISLAND, AY",89266099999,"(-72.2, -60.1666666)",Ushuaia,Tierra del Fuego,,AR
72548404942,42.77778,-96.19361,364.5,"LE MARS MUNICIPAL AIRPORT, IA US",72548404942,"(42.77778, -96.19361)",Le Mars,Iowa,Plymouth County,US
71446099999,50.2666666,-107.7333333,825.0,"SWIFT CURRENT CDA SASK, CA",71446099999,"(50.2666666, -107.7333333)",Swift Current,Saskatchewan,,CA
47823099999,32.0333333,130.2,42.2,"AKUNE, JA",47823099999,"(32.0333333, 130.2)",Akune,Kagoshima,,JP
38880099999,37.986814,58.360967,210.92,"ASHGABAT, TX",38880099999,"(37.986814, 58.360967)",Ashgabat,Ahal,,TM
72511704827,40.13333,-80.28333,361.2,"WASHINGTON CO AIRPORT, PA US",72511704827,"(40.13333, -80.28333)",Washington,Pennsylvania,Washington County,US
72211454901,45.15917,-93.84333,294.7,"BUFFALO MUNICIPAL AIRPORT, MN US",72211454901,"(45.15917, -93.84333)",Buffalo,Minnesota,Wright County,US
89050099999,-62.1833333,-58.8833333,14.0,"BELLINGSHAUSEN AWS, AY",89050099999,"(-62.1833333, -58.8833333)",Stanley,,,FK
72203163839,34.26889,-86.85833,293.5,"CULLMAN FOLSOM FIELD AIRPORT, AL US",72203163839,"(34.26889, -86.85833)",Cullman,Alabama,Cullman County,US
7027099999,49.173333,-0.45,78.02,"CARPIQUET, FR",07027099999,"(49.173333, -0.45)",Carpiquet,Lower Normandy,Departement du Calvados,FR
74206024207,47.15,-122.48333,98.1,"TACOMA MCCHORD AFB, WA US",74206024207,"(47.15, -122.48333)",McChord Air Force Base,Washington,Pierce County,US
47681099999,34.750239,137.703083,45.72,"HAMAMATSU, JA",47681099999,"(34.750239, 137.703083)",Hamamatsu,Shizuoka,,JP
15297099999,45.4333333,23.6333333,1350.0,"OBARSIA LOTRULUI, RO",15297099999,"(45.4333333, 23.6333333)",Petrila,Hunedoara,Oras Petrila,RO
47648099999,35.7333333,140.85,28.1,"CHOSHI, JA",47648099999,"(35.7333333, 140.85)",Hasaki,Chiba,,JP
72747704970,48.85583,-95.69694,322.8,"ROSEAU MUNICIPAL RUDY BILLBERG FIELD AIRPORT, MN US",72747704970,"(48.85583, -95.69694)",Roseau,Minnesota,Roseau County,US
91186022534,21.15448,-157.09612,134.2,"MOLOKAI KAUNAKAKAI MOLOKAI AIRPORT, HI US",91186022534,"(21.15448, -157.09612)",Kualapu'u,Hawaii,Maui County,US
42771099999,22.0833333,79.55,619.0,"SEONI, IN",42771099999,"(22.0833333, 79.55)",Seoni,Madhya Pradesh,Seoni,IN
72537614853,42.23666,-83.52638,215.7,"DETROIT WILLOW RUN AIRPORT, MI US",72537614853,"(42.23666, -83.52638)",Belleville,Michigan,Wayne County,US
71736099999,49.5166666,-114.0,1190.0,"PINCHER CREEK CLIMATE, CA",71736099999,"(49.5166666, -114.0)",Pincher Creek,Alberta,,CA
2744099999,61.5,23.7666666,92.0,"TAMPERE SATAKUNNANKATU, FI",02744099999,"(61.5, 23.7666666)",Tampere,Pirkanmaa,Tampere,FI
17292099999,37.2166666,28.3666666,646.0,"MUGLA, TU",17292099999,"(37.2166666, 28.3666666)",Mugla,Mugla,,TR
2869099999,65.987575,29.239381,263.95,"KUUSAMO, FI",02869099999,"(65.987575, 29.239381)",Kuusamo,Northern Ostrobothnia,Koillismaa,FI
7482099999,45.987335,5.328445,250.85,"AMBERIEU, FR",07482099999,"(45.987335, 5.328445)",Chateau-Gaillard,Rhone-Alpes,Departement de l'Ain,FR
42895099999,21.5166666,86.9333333,20.0,"BALASORE, IN",42895099999,"(21.5166666, 86.9333333)",Balasore,Odisha,Baleshwar,IN
47154099999,36.1166666,128.3166666,47.0,"GUMI, KS",47154099999,"(36.1166666, 128.3166666)",Gumi,Gyeongsangbuk-do,,KR
72598524267,42.07444,-124.29,139.9,"BROOKINGS STATE AIRPORT, OR US",72598524267,"(42.07444, -124.29)",Brookings,Oregon,Curry County,US
40859099999,28.891756,53.723339,1298.75,"FASA, IR",40859099999,"(28.891756, 53.723339)",Fasa,Fars,,IR
95833099999,-36.3333333,145.0666666,104.0,"KYABRAM INST SUSTAINABLE AG, AS",95833099999,"(-36.3333333, 145.0666666)",Kyabram,Victoria,Campaspe,AU
72367723054,35.65582,-105.13853,2094.0,"LAS VEGAS MUNICIPAL AIRPORT, NM US",72367723054,"(35.65582, -105.13853)",Las Vegas,New Mexico,San Miguel County,US
17547099999,35.5833333,34.3833333,136.0,"DIPKARPAZ, CY",17547099999,"(35.5833333, 34.3833333)",Rizokarpaso,Ammochostos,,CY
2091099999,57.6666666,18.35,49.0,"VISBY SOL, SW",02091099999,"(57.6666666, 18.35)",Visby,Gotland,Gotland,SE
71500099999,53.8166666,-114.5333333,670.0,"GLENEVIS AGCM, CA",71500099999,"(53.8166666, -114.5333333)",Barrhead,Alberta,,CA
1092099999,70.7,30.0833333,9.0,"MAKKAUR FYR, NO",01092099999,"(70.7, 30.0833333)",Batsfjord,Finnmark Fylke,Batsfjord,NO
48465099999,12.9994444,100.0666666,3.77,"PHETCHABURI, TH",48465099999,"(12.9994444, 100.0666666)",Ban Lat,Phetchaburi,,TH
60120099999,34.3,-6.6,6.0,"KENITRA RMAFB, MO",60120099999,"(34.3, -6.6)",Kenitra,Gharb-Chrarda-Beni Hssen,Kenitra Province,MA
72272803196,31.42076,-110.84655,1193.0,"NOGALES INTERNATIONAL AIRPORT, AZ US",72272803196,"(31.42076, -110.84655)",Nogales,Arizona,Santa Cruz County,US
72421093814,39.04443,-84.67241,262.4,"CINCINNATI NORTHERN KENTUCKY INTERNATIONAL AIRPORT, KY US",72421093814,"(39.04443, -84.67241)",Hebron,Kentucky,Boone County,US
6484099999,49.6166666,5.5833333,324.0,"BUZENOL, BE",06484099999,"(49.6166666, 5.5833333)",Etalle,Wallonia,Province du Luxembourg,BE
14544099999,44.0666666,17.4666666,566.0,"BUGOJNO, BK",14544099999,"(44.0666666, 17.4666666)",Bugojno,Federation of Bosnia and Herzegovina,,BA
16541099999,39.6666667,9.4333333,645.0,"PERDASDEFOGU, IT",16541099999,"(39.6666667, 9.4333333)",Perdasdefogu,Sardinia,Provincia di Ogliastra,IT
4162099999,64.4,-18.5,648.0,"VEIDIVATNAHRAUN, IC",04162099999,"(64.4, -18.5)",Akureyri,Northeast,,IS
94835099999,-37.2333333,143.2,875.0,"BEN NEVIS, AS",94835099999,"(-37.2333333, 143.2)",Ararat,Victoria,Ararat,AU
98536099999,12.5833333,122.2833333,47.0,"ROMBLON, RP",98536099999,"(12.5833333, 122.2833333)",Cajimos,Mimaropa,Province of Romblon,PH
65019099999,10.696025,7.320114,631.85,"KADUNA, NI",65019099999,"(10.696025, 7.320114)",Kaduna,Kaduna,,NG
58569099999,29.2,121.95,127.0,"SHIPU, CH",58569099999,"(29.2, 121.95)",Hepu,Zhejiang Sheng,,CN
96001099999,5.874131,95.339672,113.0,"MAIMUN SALEH, ID",96001099999,"(5.874131, 95.339672)",Sabang,Aceh,,ID
43588099999,0.4833333,72.9833333,2.0,"KAADEDHDHOO, MV",43588099999,"(0.4833333, 72.9833333)",Thinadhoo,Gaafu Dhaalu Atholhu,,MV
11157099999,47.5333333,14.1333333,649.0,"AIGEN ENNSTAL MIL, AU",11157099999,"(47.5333333, 14.1333333)",Aigen im Ennstal,Styria,Politischer Bezirk Liezen,AT
93909099999,-47.2666666,167.45,102.0,"SOUTH WEST CAPE AWS, NZ",93909099999,"(-47.2666666, 167.45)",Riverton,Southland,Southland District,NZ
14258099999,45.6,17.2333333,161.0,"DARUVAR, HR",14258099999,"(45.6, 17.2333333)",Daruvar,Bjelovarsko-Bilogorska,Grad Daruvar,HR
72591024216,40.15186,-122.25478,108.0,"RED BLUFF MUNICIPAL AIRPORT, CA US",72591024216,"(40.15186, -122.25478)",Red Bluff,California,Tehama County,US
41291099999,19.5166666,57.65,102.0,"DUQM AIRPORT, MU",41291099999,"(19.5166666, 57.65)",Hayma',Al Wusta,,OM
48379099999,16.676028,101.195108,137.16,"PHETCHABUN, TH",48379099999,"(16.676028, 101.195108)",Lom Sak,Phetchabun,,TH
41258099999,23.6333333,58.5666666,3.0,"MINA SULTAN QABOOS, MU",41258099999,"(23.6333333, 58.5666666)",Muscat,Muhafazat Masqat,,OM
86611099999,-10.45,-40.15,549.5,"SENHOR DO BONFIM, BR",86611099999,"(-10.45, -40.15)",Senhor do Bonfim,Bahia,Senhor Do Bonfim,BR
94232099999,-16.4,131.0166666,90.0,"VICTORIA RIVER DOWNS, AS",94232099999,"(-16.4, 131.0166666)",Katherine,Northern Territory,Katherine,AU
76679399999,19.436303,-99.072097,2229.91,"LICENCIADO BENITO JUAREZ INTERNATIONAL, MX",76679399999,"(19.436303, -99.072097)",Venustiano Carranza,Mexico City,,MX
96237099999,-2.17,106.13,34.0,"PANGKALPINANG, ID",96237099999,"(-2.17, 106.13)",Pangkalpinang,Bangka-Belitung Islands,,ID
96001199999,1.2166667,111.45,11.0,"SRI AMAN SIMANGGAN, MY",96001199999,"(1.2166667, 111.45)",Simanggang,Sarawak,,MY
72747404923,47.42417,-92.4975,420.3,"EVELETH VIRGINIA MUNICIPAL AIRPORT, MN US",72747404923,"(47.42417, -92.4975)",Eveleth,Minnesota,Saint Louis County,US
72616354770,42.80667,-72.00126,308.4,"JAFFREY MUNICIPAL AIRPORT SILVER RANCH, NH US",72616354770,"(42.80667, -72.00126)",Jaffrey,New Hampshire,Cheshire County,US
16294099999,40.55,14.25,269.0,"CAPRI ISLAND, IT",16294099999,"(40.55, 14.25)",Capri,Campania,Provincia di Napoli,IT
84564099999,-9.878811,-76.204797,1850.13,"ALFEREZ FAP D F FERNANDINI, PE",84564099999,"(-9.878811, -76.204797)",Huanuco,Huanuco,Provincia de Huanuco,PE
96147099999,3.908714,108.387897,2.13,"RANAI, ID",96147099999,"(3.908714, 108.387897)",Pemangkat,West Kalimantan,,ID
72043899999,38.474278,-100.884944,903.12,"SCOTT CITY MUNICIPAL, KS US",72043899999,"(38.474278, -100.884944)",Scott City,Kansas,Scott County,US
91551099999,-13.85,167.55,18.0,"SOLA VANUA LAVA ISL, NH",91551099999,"(-13.85, 167.55)",Sola,Torba,,VU
65475099999,5.7833333,0.6333333,7.0,"ADA, GH",65475099999,"(5.7833333, 0.6333333)",Anloga,Volta,,GH
48838099999,21.5166667,107.9666667,7.0,"MONG CAI, VM",48838099999,"(21.5166667, 107.9666667)",Mong Cai,Quang Ninh,,VN
37549099999,41.75,44.7666666,427.0,"TBILISI LOCHINI AIRPORT, GG",37549099999,"(41.75, 44.7666666)",Zahesi,,,GE
22867099999,61.0833333,42.0666666,91.0,"VEL SK, RS",22867099999,"(61.0833333, 42.0666666)",Vel'sk,Arkhangelskaya,,RU
41128099999,17.611436,44.419169,1213.71,"NEJRAN, SA",41128099999,"(17.611436, 44.419169)",Najran,Najran,,SA
83344099999,-14.862761,-40.863106,913.79,"VITORIA DA CONQUISTA, BR",83344099999,"(-14.862761, -40.863106)",Vitoria da Conquista,Bahia,Vitoria Da Conquista,BR
37549199999,43.0685,42.7542,2700.0,"MESTIA, GG",37549199999,"(43.0685, 42.7542)",Mest'ia,Samegrelo and Zemo Svaneti,,GE
98646099999,10.307542,123.979439,9.44,"MACTAN CEBU INTERNATIONAL, RP",98646099999,"(10.307542, 123.979439)",Lapu-Lapu City,Central Visayas,,PH
72037713917,35.63333,-91.16667,72.8,"NEWPORT MUNICIPAL AIRPORT, AR US",72037713917,"(35.63333, -91.16667)",Diaz,Arkansas,Jackson County,US
72043999999,37.604006,-101.373561,934.82,"ULYSSES, KS US",72043999999,"(37.604006, -101.373561)",Ulysses,Kansas,Grant County,US
84752099999,-16.341072,-71.583083,2561.84,"RODRIGUEZ BALLON, PE",84752099999,"(-16.341072, -71.583083)",Arequipa,Arequipa,Provincia de Arequipa,PE
3604099999,51.7,-5.05,32.0,"MILFORD HAVEN CONSERVANCY BOARD, UK",03604099999,"(51.7, -5.05)",Milford Haven,Wales,Pembrokeshire,GB
11227099999,46.7166666,14.1,551.0,"FELDKIRCHEN, AU",11227099999,"(46.7166666, 14.1)",Feldkirchen in Karnten,Carinthia,Politischer Bezirk Feldkirchen,AT
94374099999,-23.381944,150.475278,10.36,"ROCKHAMPTON, AS",94374099999,"(-23.381944, 150.475278)",West Rockhampton,Queensland,Rockhampton,AU
60250099999,30.381353,-9.546311,27.12,"INEZGANE, MO",60250099999,"(30.381353, -9.546311)",Inezgane,Souss-Massa-Draa,Inezgane-Ait Mellou,MA
72389523149,36.02944,-119.0625,134.7,"PORTERVILLE MUNICIPAL AIRPORT, CA US",72389523149,"(36.02944, -119.0625)",Porterville,California,Tulare County,US
7607099999,43.911667,-0.5075,61.87,"MONT DE MARSAN, FR",07607099999,"(43.911667, -0.5075)",Mont-de-Marsan,Aquitaine,Departement des Landes,FR
47632099999,35.4,136.7666666,17.0,"GIFU, JA",47632099999,"(35.4, 136.7666666)",Gifu-shi,Gifu,,JP
72059600189,34.3,-81.633,173.1,"NEWBERRY CO AIRPORT, SC US",72059600189,"(34.3, -81.633)",Newberry,South Carolina,Newberry County,US
48356599999,17.195142,104.118625,161.23,"SAKON NAKHON, TH",48356599999,"(17.195142, 104.118625)",Sakon Nakhon,Sakon Nakhon,,TH
87347099999,-31.444744,-64.283061,502.0,"ESCUELA DE AVIACION MILITAR, AR",87347099999,"(-31.444744, -64.283061)",Malagueno,Cordoba,,AR
71785099999,49.0166666,-122.7666666,13.0,"WHITE ROCK CAMPBELL SCIENTIFIC BC, CA",71785099999,"(49.0166666, -122.7666666)",Blaine,Washington,Whatcom County,US
72074924255,48.35,-122.66667,14.3,"WHIDBEY ISLAND NAS, WA US",72074924255,"(48.35, -122.66667)",Ault Field,Washington,Island County,US
10637099999,50.026421,8.543125,110.94,"FRANKFURT MAIN, GM",10637099999,"(50.026421, 8.543125)",Kelsterbach,Hesse,,DE
31253099999,54.7166666,128.8666666,364.0,"BOMNAK, RS",31253099999,"(54.7166666, 128.8666666)",Zeya,Amur,,RU
59209099999,23.3,105.95,794.0,"NAPO, CH",59209099999,"(23.3, 105.95)",Napo Chengxiangzhen,Guangxi Zhuangzu Zizhiqu,,CN
72749704984,46.99,-94.20389,406.6,"LONGVILLE MUNICIPAL AIRPORT, MN US",72749704984,"(46.99, -94.20389)",Cross Lake,Minnesota,Crow Wing County,US
24266099999,67.5666666,133.4,138.0,"VERHOJANSK, RS",24266099999,"(67.5666666, 133.4)",Verkhoyansk,Sakha,,RU
76393099999,25.7333333,-100.3,515.0,"MONTERREY N.L., MX",76393099999,"(25.7333333, -100.3)",San Nicolas de los Garza,Nuevo Leon,San Nicolas de los Garza,MX
82879099999,-8.35,-42.25,235.0,"S.JOAO DO PIAUI, BR",82879099999,"(-8.35, -42.25)",Sao Joao do Piaui,Piaui,Sao Joao Do Piaui,BR
72570024046,40.49296,-107.52399,1884.9,"CRAIG MOFFAT CO AIRPORT, CO US",72570024046,"(40.49296, -107.52399)",Craig,Colorado,Moffat County,US
34476099999,49.1333333,46.85,6.0,"EL TON, RS",34476099999,"(49.1333333, 46.85)",El'ton,Volgograd,,RU
71861099999,50.3680556,-102.570833,599.8,"BROADVIEW SASK, CA",71861099999,"(50.3680556, -102.570833)",Esterhazy,Saskatchewan,,CA
2813099999,66.5833333,26.0166666,107.4,"ROVANIEMI APUKKA, FI",02813099999,"(66.5833333, 26.0166666)",Rovaniemi,Lapland,Rovaniemi,FI
47404099999,44.3666666,141.7,9.6,"HABORO, JA",47404099999,"(44.3666666, 141.7)",Rumoi,Hokkaido,,JP
72045600146,38.067,-83.983,311.2,"MOUNT STERLING MONTGOMERY CO AIRPORT, KY US",72045600146,"(38.067, -83.983)",Mount Sterling,Kentucky,Montgomery County,US
80084099999,7.811956,-76.716428,14.02,"ANTONIO ROLDAN BETANCOURT, CO",80084099999,"(7.811956, -76.716428)",Carepa,Antioquia,,CO
72244453902,30.36109,-95.41757,69.4,"CONROE MONTGOMERY CO AIRPORT, TX US",72244453902,"(30.36109, -95.41757)",Conroe,Texas,Montgomery County,US
72562804935,40.45,-99.33917,702.3,"HOLDREGE BREWSTER FIELD AIRPORT, NE US",72562804935,"(40.45, -99.33917)",Holdrege,Nebraska,Phelps County,US
28879099999,53.2833333,69.3833333,229.0,"KOKSHETAY, KZ",28879099999,"(53.2833333, 69.3833333)",Kokshetau,Aqmola,,KZ
82562099999,-5.368589,-49.138025,108.81,"MARABA, BR",82562099999,"(-5.368589, -49.138025)",Maraba,Para,Maraba,BR
50434099999,50.45,121.7,733.0,"TULIHE, CH",50434099999,"(50.45, 121.7)",Tulihe,Inner Mongolia,,CN
71099099999,56.0166666,-87.6833333,16.0,"FORT SEVERN, CA",71099099999,"(56.0166666, -87.6833333)",Greenstone,Ontario,,CA
71050099999,52.1,-124.1333333,910.0,"PUNTZI MOUNTAIN AUT BC, CA",71050099999,"(52.1, -124.1333333)",Hanceville,British Columbia,,CA
26864099999,53.5,29.3333333,155.0,"KLICHEV, BO",26864099999,"(53.5, 29.3333333)",Klichaw,Mogilev,,BY
2022099999,68.35379,18.81644,392.3,"ABISKO, SW",02022099999,"(68.35379, 18.81644)",Setermoen,Troms,Bardu,NO
36229099999,50.2833333,85.6166666,978.0,"UST KOKSA, RS",36229099999,"(50.2833333, 85.6166666)",Ust'-Koksa,Altay,Ust'-Koksinskiy Rayon,RU
42367099999,26.4043,80.410119,123.44,"KANPUR CHAKERI, IN",42367099999,"(26.4043, 80.410119)",Kanpur,Uttar Pradesh,Kanpur,IN
72611454771,44.53281,-72.61516,224.4,"MORRISVILLE STOWE STATE AIRPORT, VT US",72611454771,"(44.53281, -72.61516)",Morristown,Vermont,Lamoille County,US
71320099999,68.7666666,-81.2333333,8.0,"HALL BEACH CLIMATE NU, CA",71320099999,"(68.7666666, -81.2333333)",Rankin Inlet,Nunavut,,CA
95622099999,-33.5666666,115.8166666,63.0,"DONNYBROOK, AS",95622099999,"(-33.5666666, 115.8166666)",Donnybrook,Western Australia,Donnybrook-Balingup,AU
28612099999,55.3166666,53.1833333,79.0,"MUSLJUMOVO, RS",28612099999,"(55.3166666, 53.1833333)",Muslyumovo,Tatarstan,,RU
40362099999,29.626419,43.490614,449.27,"RAFHA, SA",40362099999,"(29.626419, 43.490614)",As Salman,Al Muthanna,,IQ
47774099999,34.4333333,135.2333333,7.92,"KANSAI INTERNATIONAL, JA",47774099999,"(34.4333333, 135.2333333)",Kaizuka,Osaka,,JP
72652594911,42.87856,-97.36361,357.2,"YANKTON 2 E, SD US",72652594911,"(42.87856, -97.36361)",Yankton,South Dakota,Yankton County,US
99999900263,29.724,-98.695,422.0,,99999900263,"(29.724, -98.695)",Scenic Oaks,Texas,Bexar County,US
38002099999,44.7333333,51.9666667,56.0,"TUSCIKUDUK, KZ",38002099999,"(44.7333333, 51.9666667)",Shetpe,Mangghystau,,KZ
72211353979,30.16917,-96.98,147.8,"GIDDINGS LEE CO AIRPORT, TX US",72211353979,"(30.16917, -96.98)",Giddings,Texas,Lee County,US
2487099999,59.35,18.7333333,22.0,"SKARPO A, SW",02487099999,"(59.35, 18.7333333)",Holo,Stockholm,Varmdo Kommun,SE
47890099999,34.2833333,133.75,4.8,"TADOTSU, JA",47890099999,"(34.2833333, 133.75)",Tadotsu,Kagawa,,JP
71116099999,49.1166666,-110.4666666,935.0,"ONEFOUR CDA ALTA, CA",71116099999,"(49.1166666, -110.4666666)",Chester,Montana,Liberty County,US
31123099999,57.7666666,130.9,255.0,"CJUL BJU, RS",31123099999,"(57.7666666, 130.9)",Amga,Sakha,,RU
72405663805,36.89472,-81.34972,780.0,"MOUNTAIN EMPIRE AIRPORT, VA US",72405663805,"(36.89472, -81.34972)",Rural Retreat,Virginia,Wythe County,US
36535099999,48.75,82.3666666,512.0,"KOKPEKTY, KZ",36535099999,"(48.75, 82.3666666)",Kokpekty,,,KZ
99999953149,38.3028,-111.2935,1891.0,"TORREY 7 E, UT US",99999953149,"(38.3028, -111.2935)",Loa,Utah,Wayne County,US
80421099999,10.9166666,-63.9666666,24.0,"PORLAMAR AEROPUERTO INT DEL CARIBE, VE",80421099999,"(10.9166666, -63.9666666)",San Juan Bautista,Nueva Esparta,Municipio Diaz,VE
59948099999,18.2166666,109.5833333,7.0,"SANYA, CH",59948099999,"(18.2166666, 109.5833333)",Tiandu,Hainan,,CN
15154099999,46.65,27.7166666,117.0,"VASLUI, RO",15154099999,"(46.65, 27.7166666)",Vaslui,Vaslui,,RO
7577099999,44.5833333,4.7333333,74.0,"MONTELIMAR ANCONE, FR",07577099999,"(44.5833333, 4.7333333)",Ancone,Rhone-Alpes,Departement de la Drome,FR
47068099999,38.15,124.8833333,6.0,"RYONGYON, KN",47068099999,"(38.15, 124.8833333)",Changyon,Hwanghae-namdo,,KP
59981099999,16.8333333,112.3333333,5.0,"XISHA DAO, CH",59981099999,"(16.8333333, 112.3333333)",Dong'ao,Hainan,,CN
2955099999,62.9,27.6333333,88.3,"KUOPIO SAVILAHTI, FI",02955099999,"(62.9, 27.6333333)",Kuopio,Northern Savo,Kuopio,FI
47542099999,40.734722,140.690833,202.38,"AOMORI, JA",47542099999,"(40.734722, 140.690833)",Aomori Shi,Aomori,,JP
71927099999,48.8166666,-123.7166666,60.0,"NORTH COWICHAN, CA",71927099999,"(48.8166666, -123.7166666)",Duncan,British Columbia,,CA
64912099999,4.089192,9.360528,46.02,"TIKO, CM",64912099999,"(4.089192, 9.360528)",Tiko,South-West Province,,CM
72529214976,41.70916,-92.73491,307.2,"GRINNELL, IA US",72529214976,"(41.70916, -92.73491)",Grinnell,Iowa,Poweshiek County,US
68411099999,-28.7694444,17.6233333,174.0,"VIOOLSDRIF, SF",68411099999,"(-28.7694444, 17.6233333)",Port Nolloth,Northern Cape,Namakwa District Municipality,ZA
72221013858,30.48333,-86.51667,20.1,"VALPARAISO EGLIN AFB, FL US",72221013858,"(30.48333, -86.51667)",Valparaiso,Florida,Okaloosa County,US
43157099999,16.664658,74.289353,608.38,"KOLHAPUR, IN",43157099999,"(16.664658, 74.289353)",Kolhapur,Maharashtra,Kolhapur,IN
72092900316,45.506,-91.981,378.3,"CUMBERLAND MUNICIPAL AIRPORT, WI US",72092900316,"(45.506, -91.981)",Cumberland,Wisconsin,Barron County,US
62019099999,31.2,16.5833333,14.0,"SIRTE, LY",62019099999,"(31.2, 16.5833333)",Sirte,Surt,,LY
3162099999,55.3166666,-3.2,242.0,"ESKDALEMUIR, UK",03162099999,"(55.3166666, -3.2)",Moffat,Scotland,Dumfries and Galloway,GB
41963099999,22.4333333,91.1,4.0,"HATIA, BG",41963099999,"(22.4333333, 91.1)",Sandwip,Chittagong,,BD
65125099999,9.25,7.0,344.0,"ABUJA, NI",65125099999,"(9.25, 7.0)",Gawu Babangida,Niger,,NG
29939099999,52.6666666,84.9166666,225.0,"BIJSK ZONAL NAYA, RS",29939099999,"(52.6666666, 84.9166666)",Zonal'noye,Altai Krai,,RU
94909099999,-35.0,148.6,390.0,"BURRINJUCK DAM, AS",94909099999,"(-35.0, 148.6)",Yass,New South Wales,Yass Valley,AU
72422093820,38.03391,-84.61138,293.2,"LEXINGTON BLUEGRASS AIRPORT, KY US",72422093820,"(38.03391, -84.61138)",Monticello,Kentucky,Fayette County,US
4097099999,65.2666666,-13.5833333,11.0,"DALATANGI, IC",04097099999,"(65.2666666, -13.5833333)",Neskaupstadur,East,,IS
3953099999,51.9333333,-10.25,30.0,"VALENTIA OBSERVATORY, EI",03953099999,"(51.9333333, -10.25)",Cahersiveen,Munster,Ciarrai,IE
A0704900320,38.25,-122.6,27.1,"PETALUMA MUNICIPAL AIRPORT, CA US",A0704900320,"(38.25, -122.6)",Petaluma,California,Sonoma County,US
93004099999,-34.4333333,172.6833333,216.0,"CAPE REINGA AWS, NZ",93004099999,"(-34.4333333, 172.6833333)",Ahipara,Northland,Far North District,NZ
1484099999,59.9166666,11.5833333,128.0,"AURSKOG, NO",01484099999,"(59.9166666, 11.5833333)",Bjorkelangen,Akershus,Aurskog-Holand,NO
60536099999,34.8666666,0.15,752.0,"SAIDA, AG",60536099999,"(34.8666666, 0.15)",Saida,Saida,,DZ
91830099999,-18.830922,-159.764233,4.26,"AITUTAKI, CW",91830099999,"(-18.830922, -159.764233)",Avarua,,,CK
44294099999,47.3,107.4833333,1430.0,"MAANTI, MG",44294099999,"(47.3, 107.4833333)",Maanit,Central Aimak,,MN
99999900288,48.753,-98.393,490.0,,99999900288,"(48.753, -98.393)",Langdon,North Dakota,Cavalier County,US
16682099999,37.920708,21.292583,16.76,"ANDRAVIDA, GR",16682099999,"(37.920708, 21.292583)",Andravida,West Greece,Nomos Ileias,GR
3354099999,53.0,-1.25,117.0,"NOTTINGHAM WATNALL, UK",03354099999,"(53.0, -1.25)",Kimberley,England,Nottinghamshire,GB
43361099999,9.7333333,79.0333333,5.0,"TONDI, IN",43361099999,"(9.7333333, 79.0333333)",Tondi,Tamil Nadu,Ramanathapuram,IN
72577504111,41.27269,-111.03056,2175.9,"EVANSTON UINTA CO BURNS FIELD, WY US",72577504111,"(41.27269, -111.03056)",Evanston,Wyoming,Uinta County,US
72534514834,41.5,-88.16667,181.1,"JOLIET, IL US",72534514834,"(41.5, -88.16667)",Shorewood,Illinois,Will County,US
6747099999,45.95,7.8166666,2885.0,"MONTE ROSA, SZ",06747099999,"(45.95, 7.8166666)",Zermatt,Valais,Visp District,CH
72402093739,37.93718,-75.46622,9.7,"WALLOPS ISLAND NASA TEST FACILITY, VA US",72402093739,"(37.93718, -75.46622)",Wattsville,Virginia,Accomack County,US
35700099999,47.1166666,51.9166666,-22.0,"ATYRAU, KZ",35700099999,"(47.1166666, 51.9166666)",Atyrau,Atyrau,,KZ
72554104993,40.60639,-95.86361,351.4,"NEBRASKA CITY MUNICIPAL AIRPORT, NE US",72554104993,"(40.60639, -95.86361)",Nebraska City,Nebraska,Otoe County,US
48303199999,19.952342,99.882928,390.14,"CHIANG RAI INTERNATIONAL, TH",48303199999,"(19.952342, 99.882928)",Chiang Rai,Chiang Rai,,TH
67299199999,-20.4666666,32.7666666,824.0,"ESPUNGABERA, MZ",67299199999,"(-20.4666666, 32.7666666)",Chipinge,Manicaland,,ZW
67585099999,-13.9833333,33.6333333,1149.0,"CHITEDZE, MI",67585099999,"(-13.9833333, 33.6333333)",Lilongwe,Central Region,Lilongwe District,MW
14014099999,46.223686,14.457611,388.01,"LJUBLJANA, SI",14014099999,"(46.223686, 14.457611)",Cerklje na Gorenjskem,Cerklje na Gorenjskem,,SI
99822399999,44.3333333,-75.9333333,0.0,"ALEXANDRIA BAY, NY US",99822399999,"(44.3333333, -75.9333333)",Alexandria Bay,New York,Jefferson County,US
94886099999,-38.6333333,145.8108333,3.6,"POUND CREEK, AS",94886099999,"(-38.6333333, 145.8108333)",North Wonthaggi,Victoria,Bass Coast,AU
99729499999,41.637,-71.339,3.0,"POTTER COVE PRUDENCE ISLAND, RI US",99729499999,"(41.637, -71.339)",Melville,Rhode Island,Newport County,US
67857099999,-18.2,27.9666666,1010.0,"ZIKAMANUS, ZI",67857099999,"(-18.2, 27.9666666)",Lupane,Matabeleland North,,ZW
43011099999,19.0,75.7166666,519.0,"BIR, IN",43011099999,"(19.0, 75.7166666)",Beed,Maharashtra,Bid,IN
6601099999,47.55,7.5833333,317.0,"BASEL BINNINGEN, SZ",06601099999,"(47.55, 7.5833333)",Basel,Basel-City,Basel-Stadt,CH
67250099999,-15.6,34.4333333,966.0,"SONGO, MZ",67250099999,"(-15.6, 34.4333333)",Mwanza,Southern Region,Mwanza District,MW
48303099999,19.885361,99.826844,399.89,"CHIANG RAI, TH",48303099999,"(19.885361, 99.826844)",Chiang Rai,Chiang Rai,,TH
29752099999,54.75,88.8166666,1183.0,"NENASTNAYA, RS",29752099999,"(54.75, 88.8166666)",Priiskovyy,Khakasiya,,RU
94762099999,-33.9833333,150.9166666,40.0,"HOLSWORTHY CONTROL RANGE, AS",94762099999,"(-33.9833333, 150.9166666)",Glenfield,New South Wales,Campbelltown Municipality,AU
1217099999,62.744722,7.2625,3.04,"ARO, NO",01217099999,"(62.744722, 7.2625)",Molde,More og Romsdal,Molde,NO
94248099999,-15.75,136.8,13.0,"CENTRE ISLAND, AS",94248099999,"(-15.75, 136.8)",Alyangula,Northern Territory,,AU
43227099999,14.7833333,75.4,573.0,"HAVERI, IN",43227099999,"(14.7833333, 75.4)",Haveri,Karnataka,Haveri,IN
22676099999,63.5833333,45.6333333,62.0,"SURA, RS",22676099999,"(63.5833333, 45.6333333)",Karpogory,Arkhangelskaya,,RU
3212099999,54.6166666,-3.1666666,81.0,"KESWICK, UK",03212099999,"(54.6166666, -3.1666666)",Keswick,England,Cumbria,GB
58725099999,27.3333333,117.4666666,219.0,"SHAOWU, CH",58725099999,"(27.3333333, 117.4666666)",Shaowu,Fujian,,CN
72463523067,38.04948,-103.51335,1278.7,"LA JUNTA MUNICIPAL AIRPORT, CO US",72463523067,"(38.04948, -103.51335)",La Junta,Colorado,Otero County,US
99729599999,41.68,-83.4,184.0,"TOLEDO, OH US",99729599999,"(41.68, -83.4)",Curtice,Ohio,Lucas County,US
58731099999,27.9166666,118.5333333,275.0,"PUCHENG, CH",58731099999,"(27.9166666, 118.5333333)",Pucheng,Fujian,,CN
99999963868,34.6602,-87.3462,175.3,"COURTLAND 2 WSW, AL US",99999963868,"(34.6602, -87.3462)",Town Creek,Alabama,Lawrence County,US
43233099999,14.2333333,76.4333333,733.0,"CHITRADURGA, IN",43233099999,"(14.2333333, 76.4333333)",Chitradurga,Karnataka,Chitradurga,IN
16719099999,37.7833333,20.8833333,4.0,"ZAKINTHOS, GR",16719099999,"(37.7833333, 20.8833333)",Gaitanion,Ionian Islands,Nomos Zakynthou,GR
78990000413,12.15,-68.283,7.0,"FLAMINGO INTERNATIONAL AIRPORT, NL",78990000413,"(12.15, -68.283)",Kralendijk,Bonaire,,BQ
83746099999,-22.808903,-43.243647,8.53,"GALEAO ANTONIO CARLOS JOBIM, BR",83746099999,"(-22.808903, -43.243647)",Duque de Caxias,Rio de Janeiro,Duque De Caxias,BR
14236099999,45.8,15.9666666,157.0,"ZAGREB GRIC, HR",14236099999,"(45.8, 15.9666666)",Zagreb - Centar,Grad Zagreb,,HR
27271099999,58.3666666,45.5333333,125.0,"SAR JA, RS",27271099999,"(58.3666666, 45.5333333)",Shar'ya,Kostroma,,RU
72216693845,30.77629,-83.27393,58.7,"VALDOSTA REGIONAL AIRPORT, GA US",72216693845,"(30.77629, -83.27393)",Valdosta,Georgia,Lowndes County,US
20667099999,73.3333333,70.05,7.0,"IM. M.V. POPOVA, RS",20667099999,"(73.3333333, 70.05)",Mys-Kamennyy,Yamalo-Nenetskiy Avtonomnyy Okrug,,RU
94776099999,-32.795,151.834444,9.44,"WILLIAMTOWN, AS",94776099999,"(-32.795, 151.834444)",Medowie,New South Wales,Port Stephens Shire,AU
1203099999,62.0333333,4.9833333,41.0,"KRAKENES, NO",01203099999,"(62.0333333, 4.9833333)",Maloy,Sogn og Fjordane,Vagsoy,NO
74504693242,36.98505,-120.11068,76.6,"MADERA MUNICIPAL AIRPORT, CA US",74504693242,"(36.98505, -120.11068)",Madera,California,Madera County,US
94295099999,-18.5166666,146.3833333,10.0,"LUCINDA POINT AWS, AS",94295099999,"(-18.5166666, 146.3833333)",Ingham,Queensland,Hinchinbrook,AU
8925099999,42.6333333,0.45,2115.0,"ERISTE REFUGIO ANGEL ORUS, SP",08925099999,"(42.6333333, 0.45)",Sahun,Aragon,Provincia de Huesca,ES
65594099999,4.746717,-6.660817,7.92,"SAN PEDRO, IV",65594099999,"(4.746717, -6.660817)",San-Pedro,Bas-Sassandra,,CI
98558099999,11.035544,125.741594,2.13,"GUIUAN, RP",98558099999,"(11.035544, 125.741594)",Guiuan,Eastern Visayas,Province of Eastern Samar,PH
94892099999,-38.45,145.3,14.0,"RHYLL AWS, AS",94892099999,"(-38.45, 145.3)",Cowes,Victoria,Bass Coast,AU
25042099999,69.9166666,167.9666666,13.7,"AJON, RS",25042099999,"(69.9166666, 167.9666666)",Pevek,Chukotskiy Avtonomnyy Okrug,,RU
86952099999,-27.85,-53.7833333,551.5,"SANTO AUGUSTO, BR",86952099999,"(-27.85, -53.7833333)",Santo Augusto,Rio Grande do Sul,Santo Augusto,BR
67843099999,-18.095881,25.839006,1063.75,"VICTORIA FALLS INTERNATIONAL, ZI",67843099999,"(-18.095881, 25.839006)",Victoria Falls,Matabeleland North,Hwange District,ZW
43005099999,19.15,72.0,12.0,"T B I A, IN",43005099999,"(19.15, 72.0)",Borivli,Maharashtra,Mumbai Suburban,IN
1035099999,69.5666666,20.1,710.0,"LYNGEN GJERDVASSBU, NO",01035099999,"(69.5666666, 20.1)",Lyngseidet,Troms,Lyngen,NO
99999900459,28.517,-88.283,25.0,,99999900459,"(28.517, -88.283)",Port Sulphur,Louisiana,Plaquemines Parish,US
94589099999,-29.4333333,153.3666666,30.0,"YAMBA PILOT STATION, AS",94589099999,"(-29.4333333, 153.3666666)",Maclean,New South Wales,Clarence Valley,AU
6109099999,55.4666666,9.1166666,62.0,"ASKOV, DA",06109099999,"(55.4666666, 9.1166666)",Vejen,South Denmark,Vejen Kommune,DK
67072099999,-17.093889,49.815834,2.13,"SAINTE MARIE, MA",67072099999,"(-17.093889, 49.815834)",Ambodifotatra,Analanjirofo,,MG
30846099999,51.35,112.4666666,743.0,"ULETY, RS",30846099999,"(51.35, 112.4666666)",Ulety,Transbaikal Territory,,RU
67591099999,-12.9166667,34.2666667,500.0,"NKHOTA KOTA, MI",67591099999,"(-12.9166667, 34.2666667)",Nkhotakota,Central Region,Nkhotakota District,MW
1345099999,60.7166666,7.2166666,960.0,"KLEVAVATNET, NO",01345099999,"(60.7166666, 7.2166666)",Aurlandsvangen,Sogn og Fjordane,Aurland,NO
60714099999,37.245447,9.791453,6.09,"SIDI AHMED AIR BASE, TS",60714099999,"(37.245447, 9.791453)",Menzel Abderhaman,Banzart,,TN
13285099999,44.75,21.5166666,84.0,"VELIKO GRADISTE, RI",13285099999,"(44.75, 21.5166666)",Veliko Gradiste,Central Serbia,Branicevski Okrug,RS
72101199999,47.967118,-100.58055,482.8,"ALPHA BALFOUR, ND US",72101199999,"(47.967118, -100.58055)",Velva,North Dakota,McHenry County,US
86739099999,-16.3666666,-45.1166666,461.5,"SAO ROMAO, BR",86739099999,"(-16.3666666, -45.1166666)",Sao Francisco,Minas Gerais,Sao Francisco,BR
71966499999,64.05,-139.13,370.0,"DAWSON, CA",71966499999,"(64.05, -139.13)",Dawson City,Yukon,,CA
6279099999,52.7333333,6.5730556,16.0,"HOOGEVEEN AWS, NL",06279099999,"(52.7333333, 6.5730556)",Hoogeveen,Drenthe,Gemeente Hoogeveen,NL
6753099999,46.5166666,8.6833333,1016.0,"PIOTTA, SZ",06753099999,"(46.5166666, 8.6833333)",Airolo,Ticino,Leventina District,CH
14370099999,45.1666667,18.0,89.0,"SLAVONSKI BROD, HR",14370099999,"(45.1666667, 18.0)",Slavonski Brod,Brodsko-Posavska,Grad Slavonski Brod,HR
72772024144,46.60444,-111.98921,1178.1,"HELENA AIRPORT ASOS, MT US",72772024144,"(46.60444, -111.98921)",Helena,Montana,Lewis and Clark County,US
37711099999,40.8666666,45.15,733.0,"IDJEVAN, AM",37711099999,"(40.8666666, 45.15)",Ijevan,Tavush,,AM
11280099999,47.1166666,14.1833333,813.0,"MURAU, AU",11280099999,"(47.1166666, 14.1833333)",Murau,Styria,Politischer Bezirk Murau,AT
71966599999,67.570556,-139.839167,251.15,"OLD CROW, CA",71966599999,"(67.570556, -139.839167)",Dawson City,Yukon,,CA
35522099999,48.733,56.033,186.0,"KARAUL KEL DY, KZ",35522099999,"(48.733, 56.033)",Bayganin,Aqtoebe,,KZ
99999996407,66.562,-159.0036,6.7,"SELAWIK 28 E, AK US",99999996407,"(66.562, -159.0036)",Kotzebue,Alaska,Northwest Arctic Borough,US
1459099999,58.65,8.6333333,142.0,"NELAUG, NO",01459099999,"(58.65, 8.6333333)",Blakstad,Aust-Agder,Froland,NO
94406099999,-26.8166666,114.6166666,136.0,"BILLABONG ASA, AS",94406099999,"(-26.8166666, 114.6166666)",Kalbarri,Western Australia,Northampton Shire,AU
60522099999,34.82,-1.77,426.0,"MAGHNIA, AG",60522099999,"(34.82, -1.77)",Nedroma,Tlemcen,,DZ
1490099999,59.9833333,10.6833333,528.0,"TRYVANNSHOGDA, NO",01490099999,"(59.9833333, 10.6833333)",Sjolyststranda,Oslo,Oslo,NO
27930099999,52.702547,39.538034,178.92,"LIPETSK AIRPORT, RS",27930099999,"(52.702547, 39.538034)",Kuz'minskiye Otverzhki,Lipetsk,,RU
16469099999,37.9333333,16.05,118.0,"CAPO SPARTIVENTO, IT",16469099999,"(37.9333333, 16.05)",Weather Station,Calabria,Provincia di Reggio Calabria,IT
98134099999,20.4333333,121.9666666,167.0,"BASCO RADAR, RP",98134099999,"(20.4333333, 121.9666666)",Basco,Cagayan Valley,Province of Batanes,PH
86814099999,-20.1666666,-50.6,458.5,"JALES, BR",86814099999,"(-20.1666666, -50.6)",Jales,Sao Paulo,Jales,BR
89514099999,-70.7666666,11.75,-999.9,"MAITRI, AY",89514099999,"(-70.7666666, 11.75)",Hermanus,Western Cape,Overberg District Municipality,ZA
15189099999,46.2333333,24.6,319.0,"DUMBRAVENI, RO",15189099999,"(46.2333333, 24.6)",Hoghilag,Sibiu,Comuna Hoghilag,RO
71933099999,54.45,-124.2833333,685.5,"FORT ST JAMES AUTO, CA",71933099999,"(54.45, -124.2833333)",Vanderhoof,British Columbia,,CA
7563099999,43.9,4.9,48.0,"AVIGNON, FR",07563099999,"(43.9, 4.9)",Noves,Provence-Alpes-Cote d'Azur,Departement des Bouches-du-Rhone,FR
99999953968,31.7796,-95.7232,116.7,"PALESTINE 6 WNW, TX US",99999953968,"(31.7796, -95.7232)",Palestine,Texas,Anderson County,US
24933099999,60.95,119.3,249.31,"KILEER, RS",24933099999,"(60.95, 119.3)",Olyokminsk,Sakha,,RU
87509099999,-34.588089,-68.402678,752.85,"SAN RAFAEL, AR",87509099999,"(-34.588089, -68.402678)",San Rafael,Mendoza,,AR
31137099999,56.2833333,131.1333333,850.0,"TOKO, RS",31137099999,"(56.2833333, 131.1333333)",Tokur,Amur,,RU
71428099999,49.1,-66.65,5.0,"CAP CHAT QUE, CA",71428099999,"(49.1, -66.65)",Cap-Chat,Quebec,,CA
71102099999,53.0166666,-110.1,669.0,"RIVERCOURSE AGCM, CA",71102099999,"(53.0166666, -110.1)",Lloydminster,Saskatchewan,,CA
2493099999,59.75,19.4166666,15.0,"SODERARM, SW",02493099999,"(59.75, 19.4166666)",Bjorko,Stockholm,Norrtalje Kommun,SE
99418099999,48.32,-122.84,15.2,"SMITH ISLAND WA, US",99418099999,"(48.32, -122.84)",Ault Field,Washington,Island County,US
17145099999,39.554589,27.013833,15.24,"EDREMIT KORFEZ, TU",17145099999,"(39.554589, 27.013833)",Edremit,Balikesir,,TR
68633099999,-31.1833333,24.95,1496.0,"NOUPOORT, SF",68633099999,"(-31.1833333, 24.95)",Noupoort,Northern Cape,Pixley ka Seme District Municipality,ZA
61712099999,13.4833333,-16.1833333,15.0,"KEREWAN, GA",61712099999,"(13.4833333, -16.1833333)",Kerewan,North Bank,,GM
72297263878,39.1625,-89.67472,210.3,"LITCHFIELD MUNICIPAL AIRPORT, IL US",72297263878,"(39.1625, -89.67472)",Litchfield,Illinois,Montgomery County,US
95636099999,-33.8833333,119.1,306.0,"JACUP, AS",95636099999,"(-33.8833333, 119.1)",Ravensthorpe,Western Australia,Ravensthorpe,AU
34238099999,51.4833333,40.4166666,154.0,"ANNA, RS",34238099999,"(51.4833333, 40.4166666)",Anna,Voronezj,,RU
72642754908,46.68944,-92.09444,205.4,"SUPERIOR RICHARD I BONG AIRPORT, WI US",72642754908,"(46.68944, -92.09444)",Superior,Wisconsin,Douglas County,US
34712099999,47.0333333,37.5,70.0,"MARIUPOL, UP",34712099999,"(47.0333333, 37.5)",Mariupol,Donetsk,,UA
71334099999,58.7,-98.5,262.0,"TADOULE LAKE CS MAN, CA",71334099999,"(58.7, -98.5)",Thompson,Manitoba,,CA
85210099999,-16.3333333,-58.3833333,124.0,"SAN MATIAS, BL",85210099999,"(-16.3333333, -58.3833333)",San Matias,Santa Cruz,,BO
63717099999,-0.5,36.9666667,1759.0,"NYERI, KE",63717099999,"(-0.5, 36.9666667)",Othaya,Nyeri,,KE
99999963897,32.3349,-86.9787,47.9,"SELMA 6 SSE, AL US",99999963897,"(32.3349, -86.9787)",Selmont-West Selmont,Alabama,Dallas County,US
68858099999,-33.035569,27.825939,132.58,"EAST LONDON, SF",68858099999,"(-33.035569, 27.825939)",East London,Eastern Cape,Buffalo City Metropolitan Municipality,ZA
57036099999,34.447119,108.751592,479.14,"XIANYANG, CH",57036099999,"(34.447119, 108.751592)",Beidu,Shaanxi,,CN
72206013889,30.49529,-81.69374,7.2,"JACKSONVILLE INTERNATIONAL AIRPORT, FL US",72206013889,"(30.49529, -81.69374)",Nassau Village-Ratliff,Florida,Nassau County,US
2036099999,67.85,19.0333333,468.0,"NIKKALUOKTA, SW",02036099999,"(67.85, 19.0333333)",Kiruna,Norrbotten,Kiruna Kommun,SE
59501099999,22.7833333,115.3666666,5.0,"SHANWEI, CH",59501099999,"(22.7833333, 115.3666666)",Shanwei,Guangdong,,CN
78486099999,18.4333333,-69.8833333,14.0,"SANTO DOMINGO, DR",78486099999,"(18.4333333, -69.8833333)",Villa Francisca,Nacional,,DO
68543099999,-30.5333333,25.5333333,1272.0,"GARIEP DAM, SF",68543099999,"(-30.5333333, 25.5333333)",Colesberg,Northern Cape,Pixley ka Seme District Municipality,ZA
72083900279,39.667,-119.876,1540.2,"RENO STEAD AIRPORT, NV US",72083900279,"(39.667, -119.876)",Lemmon Valley,Nevada,Washoe County,US
42832099999,21.3166666,70.3166666,50.0,"KESHOD, IN",42832099999,"(21.3166666, 70.3166666)",Keshod,Gujarat,Junagadh,IN
6476599999,50.0333333,5.4,557.0,"SAINT HUBERT, BE",06476599999,"(50.0333333, 5.4)",Saint-Hubert,Wallonia,Province du Luxembourg,BE
2807099999,68.607269,27.405328,146.6,"IVALO, FI",02807099999,"(68.607269, 27.405328)",Ivalo,Lapland,Pohjois-Lappi,FI
71758099999,46.17,-60.05,63.0,"SYDNEY RCS, CA",71758099999,"(46.17, -60.05)",Glace Bay,Nova Scotia,,CA
71272099999,58.7,-98.5,281.0,"TADOULE LAKE, CA",71272099999,"(58.7, -98.5)",Thompson,Manitoba,,CA
71791099999,53.0666666,-110.6166666,647.0,"GILT EDGE NORTH AGCM, CA",71791099999,"(53.0666666, -110.6166666)",Wainwright,Alberta,,CA
72067100248,31.554,-81.883,33.2,"JESUP WAYNE CO AIRPORT, GA US",72067100248,"(31.554, -81.883)",Jesup,Georgia,Wayne County,US
64247099999,-6.1666666,23.6166666,633.0,"MBUJI MAYI, CG",64247099999,"(-6.1666666, 23.6166666)",Mbuji-Mayi,Kasai-Oriental,,CD
72209503030,36.68185,-101.50515,948.7,"GUYMON MUNICIPAL AIRPORT, OK US",72209503030,"(36.68185, -101.50515)",Guymon,Oklahoma,Texas County,US
24758099999,62.2666666,127.0666666,231.42,"BERDIGESTYAH, RS",24758099999,"(62.2666666, 127.0666666)",Berdigestyakh,Sakha,,RU
47626099999,36.15,139.3833333,31.77,"KUMAGAYA, JA",47626099999,"(36.15, 139.3833333)",Kumagaya,Saitama,,JP
15230099999,45.8666666,22.9,231.0,"DEVA, RO",15230099999,"(45.8666666, 22.9)",Deva,Hunedoara,Municipiul Deva,RO
72334703809,36.0002,-89.4094,91.4,"DYERSBURG MUNICIPAL AIRPORT, TN US",72334703809,"(36.0002, -89.4094)",Dyersburg,Tennessee,Dyer County,US
95293099999,-19.4166666,146.5333333,559.0,"WOOLSHED, AS",95293099999,"(-19.4166666, 146.5333333)",Bohle Plains,Queensland,Townsville,AU
95770099999,-33.2666666,151.5666666,20.0,"NORAH HEAD LIGHTHOUSE, AS",95770099999,"(-33.2666666, 151.5666666)",Noraville,New South Wales,Wyong Shire,AU
87679099999,-37.6,-62.3833333,304.0,"PIGUE AIRPORT, AR",87679099999,"(-37.6, -62.3833333)",Pigue,Buenos Aires,,AR
68296099999,-24.9833333,31.6,271.0,"SKUKUZA, SF",68296099999,"(-24.9833333, 31.6)",Thulamahashi,Limpopo,,ZA
41620099999,31.358381,69.463606,1417.32,"ZHOB, PK",41620099999,"(31.358381, 69.463606)",Zhob,Balochistan,,PK
99999925381,55.0455,-131.5877,32.0,"METLAKATLA 6 S, AK US",99999925381,"(55.0455, -131.5877)",Metlakatla,Alaska,Annette Island Reserve,US
94360099999,-20.55,147.8333333,187.0,"COLLINSVILLE POST OFFICE, AS",94360099999,"(-20.55, 147.8333333)",Bowen,Queensland,Whitsunday,AU
86743099999,-16.1666666,-40.6833333,209.5,"ALMENARA, BR",86743099999,"(-16.1666666, -40.6833333)",Almenara,Minas Gerais,Almenara,BR
94683099999,-35.1666666,138.6666666,365.0,"KUITPO FOREST RESERVE, AS",94683099999,"(-35.1666666, 138.6666666)",Meadows,South Australia,Mount Barker,AU
6203099999,52.3666666,3.35,24.0,"P11 B DE RUYTER, NL",06203099999,"(52.3666666, 3.35)",Renesse,Zeeland,Schouwen-Duiveland,NL
72445303994,38.71198,-93.17467,271.6,"SEDALIA MEMORIAL AIRPORT, MO US",72445303994,"(38.71198, -93.17467)",Sedalia,Missouri,Pettis County,US
72057999999,29.277956,-103.687258,802.0,"LAJITAS INTERNATIONAL AIRPORT, TX US",72057999999,"(29.277956, -103.687258)",Presidio,Texas,Presidio County,US
54423099999,40.9666666,117.9166666,423.0,"CHENGDE, CH",54423099999,"(40.9666666, 117.9166666)",Chengde,Hebei,,CN
72688799999,43.876333,-121.453056,1269.18,"SUNRIVER, OR US",72688799999,"(43.876333, -121.453056)",Sunriver,Oregon,Deschutes County,US
72546904913,41.01944,-93.35944,320.0,"CHARITON MUNICIPAL AIRPORT, IA US",72546904913,"(41.01944, -93.35944)",Chariton,Iowa,Lucas County,US
86575099999,-34.789208,-56.264703,53.03,"ANGEL S ADAMI, UY",86575099999,"(-34.789208, -56.264703)",La Paz,Canelones,,UY
29485099999,56.6833333,96.05,244.5,"ABAN, RS",29485099999,"(56.6833333, 96.05)",Aban,Krasnoyarskiy,,RU
8502099999,39.67,-31.12,26.0,"CORVO ISLAND AZORES, PO",08502099999,"(39.67, -31.12)",Ribeira Grande,Azores,,PT
84746199999,-15.8263,-70.0121,3812.0,"SESQUICENTENARIO, PE",84746199999,"(-15.8263, -70.0121)",Puno,Puno,Provincia de Puno,PE
43413099999,8.9833333,79.9166666,3.0,"MANNAR, CE",43413099999,"(8.9833333, 79.9166666)",Vavuniya,Northern Province,,LK
72411593757,37.95,-79.81667,1156.1,"HOT SPRINGS INGALLS FIELD, VA US",72411593757,"(37.95, -79.81667)",Warm Springs,Virginia,Bath County,US
27983099999,53.1833333,48.4,103.0,"SYZRAN, RS",27983099999,"(53.1833333, 48.4)",Varlamovo,Samara,,RU
4030099999,64.13,-21.940556,14.63,"REYKJAVIK, IC",04030099999,"(64.13, -21.940556)",Kopavogur,Capital Region,,IS
11375099999,47.55,15.2333333,774.0,"AFLENZ, AU",11375099999,"(47.55, 15.2333333)",Aflenz Kurort,Styria,Politischer Bezirk Bruck-Muerzzuschlag,AT
72326013891,35.81801,-83.98573,295.8,"KNOXVILLE AIRPORT, TN US",72326013891,"(35.81801, -83.98573)",Alcoa,Tennessee,Blount County,US
84600099999,-11.8391,-76.3779,2417.0,"MATUCANA, PE",84600099999,"(-11.8391, -76.3779)",Matucana,Lima,Provincia de Huarochiri,PE
16280099999,40.9166667,12.95,185.0,"PONZA ISLAND, IT",16280099999,"(40.9166667, 12.95)",Ponza,Latium,Provincia di Latina,IT
76361599999,25.685194,-109.080806,4.87,"VALLE DEL FUERTE INTERNATIONAL, MX",76361599999,"(25.685194, -109.080806)",Bachomobampo Numero Dos,Sinaloa,Ahome,MX
54753099999,37.6166666,120.3166666,5.0,"LONGKOU, CH",54753099999,"(37.6166666, 120.3166666)",Longgang,Shandong Sheng,,CN
6490199999,50.9333333,3.65,37.0,"SEMMERZAKE BAFB, BE",06490199999,"(50.9333333, 3.65)",Gavere,Flanders,Provincie Oost-Vlaanderen,BE
35302099999,50.2,51.1666666,17.0,"CHAPAEVO, KZ",35302099999,"(50.2, 51.1666666)",Chapaev,Batys Qazaqstan,,KZ
13370099999,43.8333333,20.0333333,312.0,"POZEGA UZICKA, RI",13370099999,"(43.8333333, 20.0333333)",Pozega,Central Serbia,Zlatiborski Okrug,RS
48647099999,3.130583,101.549333,27.43,"SULTAN ABDUL AZIZ SHAH INTERNATIONAL, MY",48647099999,"(3.130583, 101.549333)",Kampung Baru Subang,Selangor,,MY
8391099999,37.418,-5.893106,33.83,"SEVILLA, SP",08391099999,"(37.418, -5.893106)",Sevilla,Andalusia,Provincia de Sevilla,ES
72029853971,31.86944,-95.2175,206.3,"JACKSONVILLE CHEROKEE CO AIRPORT, TX US",72029853971,"(31.86944, -95.2175)",Rusk,Texas,Cherokee County,US
94821099999,-37.7333333,140.7833333,69.0,"MOUNT GAMBIER AERO, AS",94821099999,"(-37.7333333, 140.7833333)",Worrolong,South Australia,Grant,AU
4176099999,64.9333333,-15.7833333,639.0,"KARAHNJUKAR, IC",04176099999,"(64.9333333, -15.7833333)",Hoefn,East,,IS
96015099999,4.25,96.1166667,90.0,"MEULABOH CUT NYAK, ID",96015099999,"(4.25, 96.1166667)",Banda Layung,Aceh,,ID
62131099999,29.1166666,15.95,267.0,"HON, LY",62131099999,"(29.1166666, 15.95)",Hun,Al Jufrah,,LY
3560099999,52.2166666,-0.4833333,84.0,"BEDFORD, UK",03560099999,"(52.2166666, -0.4833333)",Riseley,England,Bedford,GB
51495099999,43.2166666,91.7333333,732.0,"SHISANJIANFANG, CH",51495099999,"(43.2166666, 91.7333333)",Barkol,Xinjiang Uygur Zizhiqu,,CN
43555099999,4.191833,73.529128,1.82,"MALE INTERNATIONAL, MV",43555099999,"(4.191833, 73.529128)",Male,Maale,,MV
72253612911,29.5325,-98.2623,221.9,"RANDOLPH AFB, TX US",72253612911,"(29.5325, -98.2623)",Schertz,Texas,Guadalupe County,US
15525399999,43.151444,25.712889,86.86,"GORNA ORYAHOVITSA, BU",15525399999,"(43.151444, 25.712889)",Gorna Oryakhovitsa,Veliko Turnovo,Obshtina Gorna Oryakhovitsa,BG
72029304989,42.45333,-91.9475,298.1,"INDEPENDENCE MUNICIPAL AIRPORT, IA US",72029304989,"(42.45333, -91.9475)",Independence,Iowa,Buchanan County,US
1086099999,70.600256,29.692678,149.35,"BATSFJORD, NO",01086099999,"(70.600256, 29.692678)",Batsfjord,Finnmark Fylke,Batsfjord,NO
6490099999,50.4833333,5.9166667,482.0,"SPA LA SAUVENIERE, BE",06490099999,"(50.4833333, 5.9166667)",Spa,Wallonia,Province de Liege,BE
6459099999,50.5833333,4.6833333,157.0,"ERNAGE, BE",06459099999,"(50.5833333, 4.6833333)",Gembloux,Wallonia,Province de Namur,BE
95827099999,-37.1166666,141.8,189.0,"KANAGULK, AS",95827099999,"(-37.1166666, 141.8)",Horsham,Victoria,Horsham,AU
31521099999,50.7833333,129.3333333,227.0,"BRATOLJUBOVKA, RS",31521099999,"(50.7833333, 129.3333333)",Romny,Amur,,RU
72066900247,27.3,-93.533,224.0,"GUNNISON OIL PLATFORM, TX US",72066900247,"(27.3, -93.533)",Galveston,Texas,Galveston County,US
71208199999,49.834167,-124.5,129.54,"POWELL RIVER, CA",71208199999,"(49.834167, -124.5)",Powell River,British Columbia,Powell River Regional District,CA
72509854704,42.19123,-71.17326,13.0,"NORWOOD MEMORIAL AIRPORT, MA US",72509854704,"(42.19123, -71.17326)",Norwood,Massachusetts,Norfolk County,US
71514099999,50.4333333,-104.6666666,577.0,"REGINA RCS SASK, CA",71514099999,"(50.4333333, -104.6666666)",Regina,Saskatchewan,,CA
99734799999,30.67,-81.47,7.0,"FERNANDINA BEACH, FL US",99734799999,"(30.67, -81.47)",Fernandina Beach,Florida,Nassau County,US
42079099999,31.5333333,76.9,874.0,"SUNDERNAGAR, IN",42079099999,"(31.5333333, 76.9)",Sundarnagar,Himachal Pradesh,Mandi,IN
72070154942,41.05222,-93.68913,339.9,"OSCEOLA MUNICIPAL AIRPORT, IA US",72070154942,"(41.05222, -93.68913)",Osceola,Iowa,Clarke County,US
99819699999,30.7,-88.0333333,0.0,"MOBILE STATE DOCKS, AL US",99819699999,"(30.7, -88.0333333)",Mobile,Alabama,Mobile County,US
47140099999,36.0023491,126.7634672,26.9,"GUNSAN, KS",47140099999,"(36.0023491, 126.7634672)",Kunsan,Jeollabuk-do,,KR
11927599999,48.637839,19.134108,317.9,"SLIAC, LO",11927599999,"(48.637839, 19.134108)",Zvolen,Banskobystricky,Okres Banska Bystrica,SK
23933099999,61.028479,69.086067,23.16,"KHANTY MANSIYSK, RS",23933099999,"(61.028479, 69.086067)",Khanty-Mansiysk,Khanty-Mansiyskiy Avtonomnyy Okrug,,RU
47189099999,33.25,126.5666666,51.0,"SEOGWIPO, KS",47189099999,"(33.25, 126.5666666)",Seogwipo,Jeju-do,,KR
2750099999,59.85,23.25,3.0,"HANKO TVARMINNE, FI",02750099999,"(59.85, 23.25)",Ekenaes,Uusimaa,Raaseporin,FI
72451803968,38.85,-99.26667,609.0,"HAYS MUNICIPAL AIRPORT, KS US",72451803968,"(38.85, -99.26667)",Hays,Kansas,Ellis County,US
2799099999,64.3,30.1666666,198.4,"KUHMO KALLIOJOKI, FI",02799099999,"(64.3, 30.1666666)",Kostomuksha,Republic of Karelia,,RU
99734699999,26.65,-81.87,6.0,"FORT MYERS, FL US",99734699999,"(26.65, -81.87)",North Fort Myers,Florida,Lee County,US
71208099999,53.8166666,-89.9,224.1,"BIG TROUT LAKE, CA",71208099999,"(53.8166666, -89.9)",Ear Falls,Ontario,,CA
A0000253928,30.21889,-96.37417,93.9,"BRENHAM MUNICIPAL AIRPORT, TX US",A0000253928,"(30.21889, -96.37417)",Brenham,Texas,Washington County,US
57799099999,27.1166666,114.9666666,78.0,"JI AN, CH",57799099999,"(27.1166666, 114.9666666)",Ji'an,Jiangxi Sheng,,CN
99819799999,37.8,-122.3166666,7.0,"OAKLAND MIDDLE HARBOR MET, CA US",99819799999,"(37.8, -122.3166666)",Emeryville,California,Alameda County,US
11927499999,48.625247,17.828444,166.11,"PIESTANY, LO",11927499999,"(48.625247, 17.828444)",Piestany,Trnavsky,Okres Trnava,SK
87329099999,-32.384669,-65.186522,616.0,"VALLE DEL CONLARA, AR",87329099999,"(-32.384669, -65.186522)",Santa Rosa del Conlara,San Luis,,AR
72068499999,42.05,-104.9333333,1455.11,"PHIFER AFLD, WY US",72068499999,"(42.05, -104.9333333)",Wheatland,Wyoming,Platte County,US
12695099999,49.8,22.7666666,280.0,"PRZEMYSL, PL",12695099999,"(49.8, 22.7666666)",Przemysl,Subcarpathian Voivodeship,Przemysl,PL
12376099999,52.195528,21.655917,184.09,"MINSK MAZOWIECKI, PL",12376099999,"(52.195528, 21.655917)",Jakubow,Masovian Voivodeship,Powiat minski,PL
71949099999,62.2333333,-133.35,717.0,"FARO AUT YT, CA",71949099999,"(62.2333333, -133.35)",Whitehorse,Yukon,,CA
15410099999,44.6333333,22.6333333,80.0,"DROBETA TURNU SEVERIN, RO",15410099999,"(44.6333333, 22.6333333)",Drobeta-Turnu Severin,Mehedinti,Municipiul Drobeta-Turnu Severin,RO
72465593990,39.37412,-99.82987,667.1,"HILL CITY MUNICIPAL AIRPORT, KS US",72465593990,"(39.37412, -99.82987)",Hill City,Kansas,Graham County,US
71980099999,61.95,-127.2,618.0,"RABBIT KETTLE NWT, CA",71980099999,"(61.95, -127.2)",Watson Lake,Yukon,,CA
99778999999,58.9666666,-135.2166666,19.0,"ELDRED ROCK, AK US",99778999999,"(58.9666666, -135.2166666)",Haines,Alaska,Haines Borough,US
68155099999,-23.726046,27.687597,839.0,"LEPHALALE ELLISRAS AIRFIELD, SF",68155099999,"(-23.726046, 27.687597)",Lephalale,Limpopo,Waterberg District Municipality,ZA
36889099999,43.3833,77.55,979.93,"TURGEN, KZ",36889099999,"(43.3833, 77.55)",Turgen',Almaty Oblysy,,KZ
34845099999,46.0666666,41.9666666,86.0,"GORODOVIKOVSK, RS",34845099999,"(46.0666666, 41.9666666)",Gorodovikovsk,Kalmykiya,,RU
71452099999,49.7,-103.8,589.0,"WEYBURN SASK, CA",71452099999,"(49.7, -103.8)",Weyburn,Saskatchewan,,CA
47837099999,30.7166666,130.9833333,37.57,"TANEGASHIMA, JA",47837099999,"(30.7166666, 130.9833333)",Nishinoomote,Kagoshima,,JP
59117099999,24.2833333,116.0666666,116.9,"MEI XIAN, CH",59117099999,"(24.2833333, 116.0666666)",Meixian,Guangdong,,CN
42415099999,26.6166666,92.7833333,79.0,"TEZPUR, IN",42415099999,"(26.6166666, 92.7833333)",Tezpur,Assam,Sontipur,IN
71178099999,48.6666666,-53.1166666,26.0,"BONAVISTA RCS, CA",71178099999,"(48.6666666, -53.1166666)",Bonavista,Newfoundland and Labrador,,CA
95961099999,-42.9833333,145.5,35.0,"LOW ROCKY POINT AWS, AS",95961099999,"(-42.9833333, 145.5)",Queenstown,Tasmania,West Coast,AU
4065599999,65.641331,-23.546169,5.48,"BILDUDALUR, IC",04065599999,"(65.641331, -23.546169)",Isafjoerdur,Westfjords,,IS
99462099999,24.84,-80.86,0.0,"LONG KEY FL, FL US",99462099999,"(24.84, -80.86)",Islamorada,Florida,Monroe County,US
64184099999,-1.6833333,29.2333333,1552.0,"GOMA, CG",64184099999,"(-1.6833333, 29.2333333)",Goma,Nord Kivu,,CD
68649099999,-31.1166666,26.8,1603.0,"JAMESTOWN, SF",68649099999,"(-31.1166666, 26.8)",Dordrecht,Eastern Cape,Chris Hani District Municipality,ZA
68363099999,-26.2,28.45,1588.0,"SPRINGS, SF",68363099999,"(-26.2, 28.45)",Springs,Gauteng,Ekurhuleni Metropolitan Municipality,ZA
89272099999,-74.8,-71.4833333,1589.0,"UNIVERSITY WI ID 8917 SKI BLU, AY",89272099999,"(-74.8, -71.4833333)",Ushuaia,Tierra del Fuego,,AR
99778899999,56.0,-134.1333333,17.0,"CAPE DECISION, AK US",99778899999,"(56.0, -134.1333333)",Craig,Alaska,Annette Island Reserve,US
7205099999,47.760555,-3.44,48.76,"LANN BIHOUE, FR",07205099999,"(47.760555, -3.44)",Ploemeur,Brittany,Departement du Morbihan,FR
72211612873,27.91255,-82.68555,0.1,"ST PETERSBURG CLEARWATER INTERNATIONAL AIRPORT, FL US",72211612873,"(27.91255, -82.68555)",South Highpoint,Florida,Pinellas County,US
42623099999,24.75995,93.896697,774.19,"IMPHAL, IN",42623099999,"(24.75995, 93.896697)",Imphal,Manipur,Imphal East,IN
78745099999,11.990961,-83.774086,6.09,"BLUEFIELDS, NU",78745099999,"(11.990961, -83.774086)",Bluefields,Atlantico Sur,,NI
71387099999,48.8833333,-71.0166666,304.0,"ONATCHIWAY QUE, CA",71387099999,"(48.8833333, -71.0166666)",Saint-Ambroise,Quebec,Saguenay/Lac-Saint-Jean,CA
23758099999,62.158333,77.3125,78.0,"RADUZHNY, RS",23758099999,"(62.158333, 77.3125)",Raduzhny,Khanty-Mansiyskiy Avtonomnyy Okrug,,RU
42309099999,27.295494,94.09765,100.58,"LILABARI, IN",42309099999,"(27.295494, 94.09765)",North Lakhimpur,Assam,Lakhimpur,IN
14021099999,46.4833333,15.1166666,444.0,"SLOVENJ GRADEC, SI",14021099999,"(46.4833333, 15.1166666)",Smartno pri Slovenj Gradcu,Slovenj Gradec,,SI
99817399999,36.8,-121.7833333,22.0,"MOSS LANDING S HARBOR, CA US",99817399999,"(36.8, -121.7833333)",Castroville,California,Monterey County,US
27066099999,59.5333333,45.4666666,143.0,"NIKOL SK, RS",27066099999,"(59.5333333, 45.4666666)",Nikol'sk,Vologda,,RU
67265199999,-16.8333333,36.9833333,134.0,"MOCUBA, MZ",67265199999,"(-16.8333333, 36.9833333)",Quelimane,Zambezia,,MZ
32053099999,51.9166666,143.1333333,34.0,"NOGLIKI, RS",32053099999,"(51.9166666, 143.1333333)",Nogliki,Sakhalin,,RU
91943099999,-14.4833333,-145.0333333,3.0,"TAKAROA, FP",91943099999,"(-14.4833333, -145.0333333)",Tautira,,,PF
47674299999,37.293097,136.961853,218.84,"NOTO, JA",47674299999,"(37.293097, 136.961853)",Nanao,Ishikawa,,JP
83883099999,-27.1166666,-52.6166666,679.0,"CHAPECO, BR",83883099999,"(-27.1166666, -52.6166666)",Chapeco,Santa Catarina,Chapeco,BR
33000599999,48.883,24.683,287.0,"IVANO FRANKIVSK, UP",33000599999,"(48.883, 24.683)",Cherniyiv,Ivano-Frankivsk,,UA
60445099999,36.178128,5.324494,1050.0,"SETIF AIN ARNAT, AG",60445099999,"(36.178128, 5.324494)",Ain Arnat,Setif,,DZ
29551099999,56.1833333,87.6833333,144.0,"MARIINSK, RS",29551099999,"(56.1833333, 87.6833333)",Mariinsk,Kemerovo,,RU
96087099999,1.1166666,104.1166666,24.0,"BATAM HANG NADIM, ID",96087099999,"(1.1166666, 104.1166666)",Singapore,,,SG
84147099999,-1.212067,-78.574636,2591.4,"CHACHOAN, EC",84147099999,"(-1.212067, -78.574636)",Pillaro,Tungurahua,,EC
27857099999,53.4833333,42.6333333,131.0,"ZAMETCHINO, RS",27857099999,"(53.4833333, 42.6333333)",Zemetchino,Penza,,RU
62440099999,30.6,32.25,12.48,"ISMAILIA, EG",62440099999,"(30.6, 32.25)",Ismailia,Al Isma'iliyah,,EG
86973099999,-29.85,-57.0833333,63.81,"URUGUAIANA, BR",86973099999,"(-29.85, -57.0833333)",Uruguaiana,Rio Grande do Sul,Uruguaiana,BR
94757099999,-34.0666666,150.7666666,112.0,"CAMBELL TOWN MOUNT ANNAN, AS",94757099999,"(-34.0666666, 150.7666666)",Glen Alpine,New South Wales,Campbelltown Municipality,AU
13601099999,41.3333333,19.8,97.0,"TIRANA LA PRAKA, AL",13601099999,"(41.3333333, 19.8)",Tirana,Tirane,,AL
60390099999,36.691014,3.215408,24.99,"HOUARI BOUMEDIENE, AG",60390099999,"(36.691014, 3.215408)",Dar el Beida,Alger,,DZ
86697099999,-14.8833333,-40.8,874.0,"VITORIA DA CONQUISTA, BR",86697099999,"(-14.8833333, -40.8)",Vitoria da Conquista,Bahia,Vitoria Da Conquista,BR
41217099999,24.432972,54.651138,26.82,"ABU DHABI INTERNATIONAL, AE",41217099999,"(24.432972, 54.651138)",Abu Dhabi,Abu Dhabi,,AE
33000499999,48.357222,35.100556,146.6,"DNIPROPETROVSK INTERNATIONAL, UP",33000499999,"(48.357222, 35.100556)",Aviatorskoe,Dnipropetrovsk,,UA
8303099999,39.733,2.717,1015.0,"ALFABIA MOUNTAIN RANGE, SP",08303099999,"(39.733, 2.717)",Soller,Balearic Islands,Illes Balears,ES
72089799999,33.782417,-83.692861,264.26,"MONROE WALTON CO, GA US",72089799999,"(33.782417, -83.692861)",Monroe,Georgia,Walton County,US
99817299999,56.05,-132.7,12.0,"LINCOLN ROCK, AK US",99817299999,"(56.05, -132.7)",Wrangell,Alaska,City and Borough of Wrangell,US
72343553921,34.5467,-93.578,214.0,"MOUNT IDA, AR US",72343553921,"(34.5467, -93.578)",Mount Ida,Arkansas,Montgomery County,US
83767099999,-23.476392,-52.016406,544.98,"REGIONAL DE MARINGA SILVIO NAME JUNIOR, BR",83767099999,"(-23.476392, -52.016406)",Paicandu,Parana,Paicandu,BR
65260099999,5.05,7.9166666,38.0,"UYO, NI",65260099999,"(5.05, 7.9166666)",Uyo,Akwa Ibom,,NG
16738099999,36.7333333,24.4333333,168.35,"MILOS, GR",16738099999,"(36.7333333, 24.4333333)",Milos,South Aegean,Nomos Kykladon,GR
37395099999,42.2666666,42.6333333,114.0,"KUTAISI, GG",37395099999,"(42.2666666, 42.6333333)",Kutaisi,Imereti,,GE
43212099999,15.4666666,78.4833333,212.0,"NANDYAL, IN",43212099999,"(15.4666666, 78.4833333)",Nandyal,Andhra Pradesh,Kurnool,IN
3227099999,54.6833333,-2.45,847.0,"GREAT DUN FELL NUMBER 2, UK",03227099999,"(54.6833333, -2.45)",Appleby-in-Westmorland,England,Cumbria,GB
48877099999,12.25,109.2,10.0,"NHA TRANG, VM",48877099999,"(12.25, 109.2)",Nha Trang,Khanh Hoa,,VN
97192599999,-8.748169,115.167172,4.26,"BALI INTERNATIONAL, ID",97192599999,"(-8.748169, 115.167172)",Kelanabian,Bali,,ID
93800099999,-45.2166666,166.8833333,19.0,"SECRETARY ISLAND AWS, NZ",93800099999,"(-45.2166666, 166.8833333)",Te Anau,Southland,Southland District,NZ
72066800246,27.817,-94.317,224.0,"EAST BREAKS OIL PLATFORM, TX US",72066800246,"(27.817, -94.317)",Freeport,Texas,Brazoria County,US
84001099999,-0.453758,-90.265914,63.09,"SEYMOUR, EC",84001099999,"(-0.453758, -90.265914)",Puerto Ayora,Galapagos,,EC
1152099999,67.269167,14.365278,12.8,"BODO, NO",01152099999,"(67.269167, 14.365278)",Bodo,Nordland,Bodo,NO
13571099999,42.0,20.9666666,462.0,"TETOVO, MK",13571099999,"(42.0, 20.9666666)",Tetovo,Tetovo,,MK
56966099999,23.6,101.9833333,398.0,"YUANJIANG, CH",56966099999,"(23.6, 101.9833333)",Lijiang,Yunnan,,CN
41167099999,25.4,50.75,5.0,"DUKHAN, QA",41167099999,"(25.4, 50.75)",Dukhan,Baladiyat ar Rayyan,,QA
1478099999,58.9666666,10.15,15.0,"SVENNER LH, NO",01478099999,"(58.9666666, 10.15)",Stavern,Vestfold,Larvik,NO
3966099999,53.0166666,-8.0,76.0,"GURTEEN, EI",03966099999,"(53.0166666, -8.0)",Birr,Leinster,Uibh Fhaili,IE
72200754828,43.45889,-83.44556,213.7,"CARO TUSCOLA AREA AIRPORT, MI US",72200754828,"(43.45889, -83.44556)",Caro,Michigan,Tuscola County,US
51777099999,39.0333333,88.1666666,889.0,"RUOQIANG, CH",51777099999,"(39.0333333, 88.1666666)",Ruoqiang,Xinjiang Uygur Zizhiqu,,CN
43354099999,9.0,76.9166666,34.0,"PUNALUR, IN",43354099999,"(9.0, 76.9166666)",Punalur,Kerala,Kollam,IN
67323099999,-23.8666666,35.3833333,15.0,"INHAMBANE, MZ",67323099999,"(-23.8666666, 35.3833333)",Inhambane,Inhambane,,MZ
72223513838,30.61465,-88.06301,4.9,"MOBILE DOWNTOWN AIRPORT, AL US",72223513838,"(30.61465, -88.06301)",Mobile,Alabama,Mobile County,US
27316099999,57.35,37.5833333,138.0,"KASIN, RS",27316099999,"(57.35, 37.5833333)",Kashin,Tverskaya,,RU
6258099999,52.65,5.4,7.0,"HOUTRIBDIJK, NL",06258099999,"(52.65, 5.4)",Enkhuizen,North Holland,Gemeente Enkhuizen,NL
72556404924,41.44889,-96.52,366.7,"FREMONT MUNICIPAL AIRPORT, NE US",72556404924,"(41.44889, -96.52)",Fremont,Nebraska,Dodge County,US
53772099999,37.746897,112.628428,784.86,"WUSU, CH",53772099999,"(37.746897, 112.628428)",Xiaodian,Shanxi Sheng,,CN
1364099999,61.1833333,8.1166666,955.1,"FILEFJELL, NO",01364099999,"(61.1833333, 8.1166666)",Farnes,Sogn og Fjordane,Ardal,NO
60735099999,35.6666667,10.1,68.0,"KAIROUAN, TS",60735099999,"(35.6666667, 10.1)",Kairouan,Al Qayrawan,,TN
71315099999,47.9833333,-66.3333333,42.0,"CHARLO AUTO NB, CA",71315099999,"(47.9833333, -66.3333333)",Carleton-sur-Mer,Quebec,Gaspesie-Iles-de-la-Madeleine,CA
38201099999,43.8,69.2,481.0,"CULAKKURGAN, KZ",38201099999,"(43.8, 69.2)",Sholaqqkorghan,Ongtustik Qazaqstan,,KZ
72504614707,41.32792,-72.04893,2.5,"GROTON NEW LONDON AIRPORT, CT US",72504614707,"(41.32792, -72.04893)",Long Hill,Connecticut,New London County,US
17352099999,36.982166,35.280388,19.81,"ADANA, TU",17352099999,"(36.982166, 35.280388)",Seyhan,Adana,,TR
27962299999,56.090269,47.34725,170.07,"CHEBOKSARY, RS",27962299999,"(56.090269, 47.34725)",Kugesi,Chuvashia,,RU
36736099999,46.65,82.75,441.0,"BAHTY, KZ",36736099999,"(46.65, 82.75)",Tacheng,Xinjiang Uygur Zizhiqu,,CN
80308099999,2.4544,-76.609319,1733.39,"GUILLERMO LEON VALENCIA, CO",80308099999,"(2.4544, -76.609319)",Popayan,Cauca,,CO
47741099999,35.45,133.0666666,22.4,"MATSUE, JA",47741099999,"(35.45, 133.0666666)",Matsue-shi,Shimane,,JP
47788099999,34.034667,131.549194,2.13,"HOFU, JA",47788099999,"(34.034667, 131.549194)",Hofu,Yamaguchi,,JP
66325099999,-12.404633,16.947414,1712.36,"KUITO, AO",66325099999,"(-12.404633, 16.947414)",Cuito,Bie,,AO
95617099999,-34.5833333,116.35,191.0,"SHANNON, AS",95617099999,"(-34.5833333, 116.35)",Pemberton,Western Australia,Manjimup,AU
68338099999,-26.982408,24.728756,1194.81,"VRYBURG, SF",68338099999,"(-26.982408, 24.728756)",Vryburg,North-West,Dr Ruth Segomotsi Mompati District Municipality,ZA
61733099999,13.6666667,-14.4666667,17.5,"FATOTO, GA",61733099999,"(13.6666667, -14.4666667)",Kunting,Central River,,GM
40357099999,30.906589,41.138217,552.6,"ARAR, SA",40357099999,"(30.906589, 41.138217)",'Ar'ar,Northern Borders,,SA
33325099999,50.2333333,28.7333333,224.0,"ZHYTOMYR, UP",33325099999,"(50.2333333, 28.7333333)",Ozerne,Zhytomyr,,UA
82411099999,-4.255669,-69.935828,85.03,"TABATINGA, BR",82411099999,"(-4.255669, -69.935828)",Ramon Castilla,Loreto,Mariscal Ramon Castilla,PE
99439099999,26.7,-79.0,1.5,"SETTLEMENT POINT GBI, US",99439099999,"(26.7, -79.0)",West End,West Grand Bahama,,BS
2151099999,66.4833333,20.1666666,275.0,"JOKKMOKK FPL, SW",02151099999,"(66.4833333, 20.1666666)",Jokkmokk,Norrbotten,Jokkmokks Kommun,SE
63500099999,6.039389,37.590453,1189.02,"ARBA MINCH, ET",63500099999,"(6.039389, 37.590453)",Arba Minch',"Southern Nations, Nationalities, and People's Region",,ET
71123099999,53.309723,-113.579722,723.29,"EDMONTON INTERNATIONAL, CA",71123099999,"(53.309723, -113.579722)",Leduc,Alberta,,CA
42487099999,25.5666666,84.6666666,58.0,"ARRAH, IN",42487099999,"(25.5666666, 84.6666666)",Ara,Bihar,Bhojpur,IN
68424099999,-28.399097,21.260239,850.69,"UPINGTON, SF",68424099999,"(-28.399097, 21.260239)",Upington,Northern Cape,Siyanda District Municipality,ZA
28411099999,56.8333333,53.45,159.0,"IZHEVSK, RS",28411099999,"(56.8333333, 53.45)",Khokhryaki,Udmurtiya,,RU
15482099999,43.9833333,22.95,63.0,"CALAFAT, RO",15482099999,"(43.9833333, 22.95)",Calafat,Dolj,Municipiul Calafat,RO
38806099999,38.4666666,64.3666666,212.0,"BYRDALYK, TX",38806099999,"(38.4666666, 64.3666666)",Sayat,Lebap,,TM
71912099999,56.35,-94.7166666,145.0,"GILLAM AIRPORT, CA",71912099999,"(56.35, -94.7166666)",Thompson,Manitoba,,CA
68754099999,-32.5166666,27.4666666,900.0,"DOHNE, SF",68754099999,"(-32.5166666, 27.4666666)",Stutterheim,Eastern Cape,Amathole District Municipality,ZA
33749099999,47.3666666,28.4333333,78.0,"BRAVICEA, MD",33749099999,"(47.3666666, 28.4333333)",Telenesti,Taraclia,,MD
13462499999,42.4333333,19.2833333,53.0,"PODGORICA TITOGRAD, MJ",13462499999,"(42.4333333, 19.2833333)",Podgorica,Podgorica,,ME
7632099999,43.913887,2.113056,171.9,"LE SEQUESTRE, FR",07632099999,"(43.913887, 2.113056)",Le Sequestre,Midi-Pyrenees,Departement du Tarn,FR
99842799999,57.73,-152.514,6.7,"KODIAK ISLAND, AK US",99842799999,"(57.73, -152.514)",Kodiak Station,Alaska,Kodiak Island Borough,US
47607099999,36.7166666,137.2,17.33,"TOYAMA, JA",47607099999,"(36.7166666, 137.2)",Toyama-shi,Toyama,,JP
72231612958,29.81667,-90.01667,1.5,"NEW ORLEANS ALVIN CALLENDER FIELD, LA US",72231612958,"(29.81667, -90.01667)",Belle Chasse,Louisiana,Plaquemines Parish,US
2221099999,63.8333333,13.5,717.0,"KORSVATTNET, SW",02221099999,"(63.8333333, 13.5)",Valla,Jaemtland,Krokoms Kommun,SE
71779099999,53.0333333,-122.5,545.0,"QUESNEL AIRPORT AUTO, CA",71779099999,"(53.0333333, -122.5)",Quesnel,British Columbia,,CA
71854099999,51.066944,-93.793056,385.57,"RED LAKE, CA",71854099999,"(51.066944, -93.793056)",Red Lake,Ontario,,CA
99842699999,35.208,-75.703,5.6,"HATTERAS, NC US",99842699999,"(35.208, -75.703)",Buxton,North Carolina,Dare County,US
99999925380,58.4292,-135.69,6.1,"GUSTAVUS 2 NE, AK US",99999925380,"(58.4292, -135.69)",Haines,Alaska,Haines Borough,US
71106094234,49.08333,-125.76667,24.1,"TOFINO, BC CA",71106094234,"(49.08333, -125.76667)",Tofino,British Columbia,Regional District of Alberni-Clayoquot,CA
26898099999,53.214194,34.176447,202.08,"BRYANSK, RS",26898099999,"(53.214194, 34.176447)",Dobrun',Brjansk,,RU
97048099999,0.637119,122.849858,32.0,"JALALUDDIN, ID",97048099999,"(0.637119, 122.849858)",Isimu,Gorontalo,,ID
34958099999,45.1,43.45,162.0,"BLAGODARNYJ, RS",34958099999,"(45.1, 43.45)",Blagodarnyy,Stavropol'skiy,,RU
71065099999,53.7166666,-111.1166666,580.0,"MYRNAM AGCM, CA",71065099999,"(53.7166666, -111.1166666)",Elk Point,Alberta,,CA
85141099999,-14.4833333,-67.4833333,202.0,"RURRENABAQUE, BL",85141099999,"(-14.4833333, -67.4833333)",Rurrenabaque,El Beni,,BO
71586099999,55.15,-105.2666666,379.0,"LA RONGE RCS SASK, CA",71586099999,"(55.15, -105.2666666)",La Ronge,Saskatchewan,,CA
70200499999,64.6891944,-163.41275,81.38,"WHITE MOUNTAIN, AK US",70200499999,"(64.6891944, -163.41275)",Nome,Alaska,Nome Census Area,US
17022099999,41.45,31.8,137.0,"ZONGULDAK, TU",17022099999,"(41.45, 31.8)",Zonguldak,Zonguldak,,TR
99780199999,46.1,-122.95,3.0,"LONGVIEW, WA US",99780199999,"(46.1, -122.95)",Rainier,Oregon,Columbia County,US
72306613713,35.3444,-77.9647,33.2,"GOLDSBORO SEYMOUR JOHNSON AFB, NC US",72306613713,"(35.3444, -77.9647)",Goldsboro,North Carolina,Wayne County,US
96491099999,5.900897,118.059486,14.02,"SANDAKAN, MY",96491099999,"(5.900897, 118.059486)",Taman Rajawali,Sabah,,MY
11024099999,48.3333333,15.3333333,959.0,"JAUERLING, AU",11024099999,"(48.3333333, 15.3333333)",Maria Laach am Jauerling,Lower Austria,Politischer Bezirk Krems,AT
62056099999,32.8,21.8833333,648.0,"SHAHAT, LY",62056099999,"(32.8, 21.8833333)",Al Bayda',Al Jabal al Akhdar,,LY
72475423186,37.1,-113.6,894.9,"ST GEORGE MUNICIPAL AIRPORT, UT US",72475423186,"(37.1, -113.6)",Saint George,Utah,Washington County,US
72639094849,45.0716,-83.56451,208.3,"ALPENA CO REGIONAL AIRPORT, MI US",72639094849,"(45.0716, -83.56451)",Alpena,Michigan,Alpena County,US
83692099999,-21.7915,-43.386778,911.04,"FRANCISCO DE ASSIS, BR",83692099999,"(-21.7915, -43.386778)",Juiz de Fora,Minas Gerais,Juiz De Fora,BR
99999963896,34.6941,-85.9998,193.9,"SCOTTSBORO 2 NE, AL US",99999963896,"(34.6941, -85.9998)",Scottsboro,Alabama,Jackson County,US
44212099999,49.8,92.0833333,939.0,"ULAANGOM, MG",44212099999,"(49.8, 92.0833333)",Harhiraa,Uvs,,MN
6708099999,46.5666666,6.8666666,828.82,"ORON, SZ",06708099999,"(46.5666666, 6.8666666)",Oron-la-ville,Vaud,Lavaux-Oron District,CH
67673099999,-14.25,31.2833333,1036.0,"PETAUKE, ZA",67673099999,"(-14.25, 31.2833333)",Petauke,Eastern,,ZM
60265099999,30.939053,-6.909431,1153.05,"OUARZAZATE, MO",60265099999,"(30.939053, -6.909431)",Ouarzazat,Souss-Massa-Draa,Ouarzazate,MA
94341099999,-20.701944,143.114722,206.04,"RICHMOND, AS",94341099999,"(-20.701944, 143.114722)",Hughenden,Queensland,Flinders,AU
86762099999,-17.9,-41.5166666,476.5,"TEOFILO OTONI, BR",86762099999,"(-17.9, -41.5166666)",Teofilo Otoni,Minas Gerais,Teofilo Otoni,BR
94388099999,-24.1166666,152.7166666,4.0,"LADY ELLIOT ISLAND, AS",94388099999,"(-24.1166666, 152.7166666)",Bundaberg,Queensland,Bundaberg,AU
72028803711,36.36139,-78.52889,160.6,"HENDERSON OXFORD AIRPORT, NC US",72028803711,"(36.36139, -78.52889)",Oxford,North Carolina,Granville County,US
96805099999,-7.7333333,109.0166666,6.0,"CILACAP, ID",96805099999,"(-7.7333333, 109.0166666)",Karangbadar Kidul,Central Java,,ID
6478099999,50.637417,5.443222,200.86,"LIEGE, BE",06478099999,"(50.637417, 5.443222)",Mons-lez-Liege,Wallonia,Province de Liege,BE
58847099999,26.0833333,119.2833333,85.0,"FUZHOU, CH",58847099999,"(26.0833333, 119.2833333)",Guxi,Fujian,,CN
60115099999,34.78715,-1.923986,467.86,"ANGADS, MO",60115099999,"(34.78715, -1.923986)",Oujda,Oriental,Oujda-Angad,MA
48450099999,14.0166666,99.5333333,29.0,"KANCHANA BURI, TH",48450099999,"(14.0166666, 99.5333333)",Kanchanaburi,Kanchanaburi,,TH
41571099999,33.616653,73.099233,508.4,"CHAKLALA, PK",41571099999,"(33.616653, 73.099233)",Rawalpindi,Punjab,,PK
8186099999,41.633,2.017,1092.0,"SAN LORENZO, SP",08186099999,"(41.633, 2.017)",Matadepera,Catalonia,Provincia de Barcelona,ES
70063226645,65.98333,-161.13333,9.1,"BUCKLAND AIRPORT, AK US",70063226645,"(65.98333, -161.13333)",Kotzebue,Alaska,Northwest Arctic Borough,US
43097099999,18.8166666,82.7166666,913.0,"KORAPUT, IN",43097099999,"(18.8166666, 82.7166666)",Koraput,Odisha,Koraput,IN
11448099999,49.675172,13.274617,362.1,"PLZEN LINE, EZ",11448099999,"(49.675172, 13.274617)",Line,Plzensky,,CZ
72306513783,35.63333,-77.38333,7.6,"GREENVILLE PITT GREENVILLE AIRPORT, NC US",72306513783,"(35.63333, -77.38333)",Greenville,North Carolina,Pitt County,US
48385099999,16.0166666,98.8666666,460.0,"UMPHANG, TH",48385099999,"(16.0166666, 98.8666666)",Umphang,Tak,,TH
86624099999,-11.3833333,-58.7833333,375.5,"JUINA, BR",86624099999,"(-11.3833333, -58.7833333)",Vilhena,Rondonia,Vilhena,BR
94207099999,-17.5333333,118.95,8.0,"ROWLEY SHOALS, AS",94207099999,"(-17.5333333, 118.95)",Port Hedland,Western Australia,Port Hedland,AU
1291099999,64.5333333,12.3833333,95.0,"GARTLAND, NO",01291099999,"(64.5333333, 12.3833333)",Grong,Nord-Trondelag,Grong,NO
6687099999,47.1333333,9.2166666,423.0,"QUINTEN, SZ",06687099999,"(47.1333333, 9.2166666)",Quarten,Saint Gallen,Wahlkreis Sarganserland,CH
56294099999,30.578528,103.947086,495.3,"SHUANGLIU, CH",56294099999,"(30.578528, 103.947086)",Dongsheng,Sichuan,,CN
44354099999,44.9,110.1166666,938.0,"SAINSHAND, MG",44354099999,"(44.9, 110.1166666)",Saynshand,East Gobi Aymag,,MN
72291093116,33.23377,-119.45591,161.3,"SAN NICOLAS ISLAND, CA US",72291093116,"(33.23377, -119.45591)",Port Hueneme,California,Ventura County,US
25705099999,62.45,152.3166666,260.0,"SREDNIKAN, RS",25705099999,"(62.45, 152.3166666)",Seymchan,Magadan,,RU
4361099999,65.5833333,-37.15,37.0,"KULUSUK LUFTHAVN, GL",04361099999,"(65.5833333, -37.15)",Tasiilaq,Sermersooq,,GL
16742099999,36.793335,27.091667,125.57,"KOS, GR",16742099999,"(36.793335, 27.091667)",Antimacheia,South Aegean,Nomos Dodekanisou,GR
52681099999,38.6333333,103.0833333,1367.0,"MINQIN, CH",52681099999,"(38.6333333, 103.0833333)",Sanlei,Gansu Sheng,,CN
99999996406,64.5015,-154.1297,78.9,"RUBY 44 ESE, AK US",99999996406,"(64.5015, -154.1297)",Nikiski,Alaska,Kenai Peninsula Borough,US
7648099999,43.606415,5.10925,59.43,"SALON, FR",07648099999,"(43.606415, 5.10925)",Lancon-Provence,Provence-Alpes-Cote d'Azur,Departement des Bouches-du-Rhone,FR
26706099999,54.383,21.317,49.0,"ZELEZNODOROZNY, RS",26706099999,"(54.383, 21.317)",Zheleznodorozhnyy,Kaliningrad,,RU
72207853938,34.47083,-97.95083,339.2,"HALLIBURTON FIELD AIRPORT, OK US",72207853938,"(34.47083, -97.95083)",Duncan,Oklahoma,Stephens County,US
7681099999,43.4166666,6.85,126.0,"LE DRAMONT, FR",07681099999,"(43.4166666, 6.85)",Saint-Raphael,Provence-Alpes-Cote d'Azur,Departement du Var,FR
80234099999,4.167875,-73.613761,424.89,"VANGUARDIA, CO",80234099999,"(4.167875, -73.613761)",Villavicencio,Meta,Villavicencio,CO
70364427515,70.21262,-150.99441,11.3,"NUIQSUT AIRPORT, AK US",70364427515,"(70.21262, -150.99441)",Nuiqsut,Alaska,North Slope Borough,US
42744099999,22.5666666,72.9333333,44.0,"VALLABH VIDYANAGAR, IN",42744099999,"(22.5666666, 72.9333333)",Anand,Gujarat,Anand,IN
71229099999,56.9666666,-117.45,457.0,"MANNING AGDM ALTA, CA",71229099999,"(56.9666666, -117.45)",Manning,Alberta,,CA
72562414994,40.78861,-99.77083,733.0,"LEXINGTON JIM KELLY FIELD, NE US",72562414994,"(40.78861, -99.77083)",Lexington,Nebraska,Dawson County,US
2771099999,61.8833333,26.1,146.0,"JOUTSA LEIVONMAKI SAVENAHO, FI",02771099999,"(61.8833333, 26.1)",Leivonmaeki,Central Finland,Joutsa,FI
33838799999,46.927744,28.930978,121.61,"CHISINAU INTERNATIONAL, MD",33838799999,"(46.927744, 28.930978)",Singera,Chisinau,,MD
15094099999,47.0166666,27.5833333,400.0,"BARNOVA, RO",15094099999,"(47.0166666, 27.5833333)",Ciurea,Iasi,Comuna Ciurea,RO
80002099999,13.356944,-81.35833,3.04,"EL EMBRUJO, CO",80002099999,"(13.356944, -81.35833)",Mountain,"Archipielago de San Andres, Providencia y Santa Catalina",,CO
99999963855,36.0138,-85.1345,583.1,"CROSSVILLE 7 NW, TN US",99999963855,"(36.0138, -85.1345)",Crossville,Tennessee,Cumberland County,US
72259299999,61.15,-149.9833333,40.0,"ANCHORAGE WFO, AK US",72259299999,"(61.15, -149.9833333)",Anchorage,Alaska,Anchorage Municipality,US
72310613744,34.18773,-79.73079,43.0,"FLORENCE REGIONAL AIRPORT, SC US",72310613744,"(34.18773, -79.73079)",Florence,South Carolina,Florence County,US
68032099999,-19.972564,23.431086,942.74,"MAUN, BC",68032099999,"(-19.972564, 23.431086)",Maun,North West,,BW
71535099999,49.8,-112.0333333,833.0,"FINCASTLE AGDM ALTA, CA",71535099999,"(49.8, -112.0333333)",Taber,Alberta,,CA
12950099999,46.5833333,18.85,98.0,"PAKS, HU",12950099999,"(46.5833333, 18.85)",Paks,Tolna,,HU
95806099999,-35.2833333,136.9333333,44.0,"STENHOUSE BAY, AS",95806099999,"(-35.2833333, 136.9333333)",Honiton,South Australia,Yorke Peninsula,AU
64500099999,0.4586,9.412283,11.88,"LEON M BA, GB",64500099999,"(0.4586, 9.412283)",Libreville,Estuaire,,GA
72502594741,40.85898,-74.05616,0.8,"TETERBORO AIRPORT, NJ US",72502594741,"(40.85898, -74.05616)",Little Ferry,New Jersey,Bergen County,US
72535014848,41.70722,-86.31628,235.4,"SOUTH BEND AIRPORT, IN US",72535014848,"(41.70722, -86.31628)",South Bend,Indiana,Saint Joseph County,US
42328099999,26.9,70.9166666,231.0,"JAISALMER, IN",42328099999,"(26.9, 70.9166666)",Jaisalmer,Rajasthan,Jaisalmer,IN
78764099999,9.957053,-84.139797,993.95,"TOBIAS BOLANOS INTERNATIONAL, CS",78764099999,"(9.957053, -84.139797)",San Rafael,San Jose,,CR
36785099999,45.3833333,79.5,628.0,"ZHANSUGUROV, KZ",36785099999,"(45.3833333, 79.5)",Sarkand,Almaty Oblysy,,KZ
76253099999,27.392639,-109.833111,62.48,"CIUDAD OBREGON INTERNATIONAL, MX",76253099999,"(27.392639, -109.833111)",Antonio Rosales,Sonora,Cajeme,MX
72209653127,35.97611,-115.1325,749.2,"LAS VEGAS HENDERSON AIRPORT, NV US",72209653127,"(35.97611, -115.1325)",Whitney,Nevada,Clark County,US
72690424231,43.23367,-123.35775,152.9,"ROSEBURG REGIONAL AIRPORT, OR US",72690424231,"(43.23367, -123.35775)",Roseburg,Oregon,Douglas County,US
72353013967,35.38843,-97.60035,389.9,"OKLAHOMA CITY WILL ROGERS WORLD AIRPORT, OK US",72353013967,"(35.38843, -97.60035)",Oklahoma City,Oklahoma,Oklahoma County,US
80372099999,0.505228,-76.500836,248.41,"TRES DE MAYO, CO",80372099999,"(0.505228, -76.500836)",Puerto Asis,Putumayo,,CO
72536614825,41.01369,-83.66814,246.5,"FINDLAY AIRPORT, OH US",72536614825,"(41.01369, -83.66814)",Findlay,Ohio,Hancock County,US
68342099999,-26.8166666,26.0166666,1500.0,"OTTOSDAL, SF",68342099999,"(-26.8166666, 26.0166666)",Wolmaransstad,North-West,Dr Kenneth Kaunda District Municipality,ZA
40607099999,36.75,43.89,716.0,"AQRAH, IZ",40607099999,"(36.75, 43.89)",'Aqrah,Ninawa,Akre District,IQ
99999900458,39.07838,-84.21022,256.9,"CLERMONT CO AIRPORT, OH US",99999900458,"(39.07838, -84.21022)",Batavia,Ohio,Clermont County,US
68668099999,-31.547903,28.674289,731.52,"MTHATHA, SF",68668099999,"(-31.547903, 28.674289)",Mthatha,Eastern Cape,OR Tambo District Municipality,ZA
95989099999,-41.8666666,148.3,11.0,"BICHENO COUNCIL DEPOT, AS",95989099999,"(-41.8666666, 148.3)",St Helens,Tasmania,Break O'Day,AU
72290303131,32.81453,-117.13747,127.5,"SAN DIEGO MONTGOMERY FIELD, CA US",72290303131,"(32.81453, -117.13747)",San Diego,California,San Diego County,US
72062900216,43.663,-84.261,194.2,"JACK BARSTOW AIRPORT, MI US",72062900216,"(43.663, -84.261)",Midland,Michigan,Midland County,US
82188099999,-1.6666667,-50.4833333,15.0,"BREVES, BR",82188099999,"(-1.6666667, -50.4833333)",Breves,Para,Breves,BR
95940099999,-35.0833333,150.8,84.0,"PT PERPENDICULAR AWS, AS",95940099999,"(-35.0833333, 150.8)",Greenwell Point,New South Wales,Shoalhaven Shire,AU
87880099999,-48.7833333,-70.1666667,356.0,"GOBERNADOR GREGORES, AR",87880099999,"(-48.7833333, -70.1666667)",Gobernador Gregores,Santa Cruz,,AR
99999963869,30.5485,-87.8757,29.0,"FAIRHOPE 3 NE, AL US",99999963869,"(30.5485, -87.8757)",Fairhope,Alabama,Baldwin County,US
71159099999,48.5666666,-58.5666666,58.0,"STEPHENVILLE RCS, CA",71159099999,"(48.5666666, -58.5666666)",Stephenville,Newfoundland and Labrador,,CA
71473099999,48.7833333,-123.0333333,24.0,"SATURNA ISLAND CS, CA",71473099999,"(48.7833333, -123.0333333)",Point Roberts,Washington,Whatcom County,US
71190099999,48.1333333,-69.7,7.0,"POINTE DE L ISLET QUE, CA",71190099999,"(48.1333333, -69.7)",Riviere-du-Loup,Quebec,Bas-Saint-Laurent,CA
38567099999,40.1333333,65.35,341.0,"NAVOI, UZ",38567099999,"(40.1333333, 65.35)",Karmana Shahri,Navoiy,,UZ
95492099999,-27.986389,143.810833,131.97,"THARGOMINDAH, AS",95492099999,"(-27.986389, 143.810833)",Bourke,New South Wales,Bourke,AU
87078099999,-24.721367,-60.548836,129.84,"ALFEREZ ARMANDO RODRIGUEZ, AR",87078099999,"(-24.721367, -60.548836)",Las Lomitas,Formosa,,AR
68497099999,-28.95,31.7,38.0,"MTUNZINI, SF",68497099999,"(-28.95, 31.7)",eSikhawini,KwaZulu-Natal,uThungulu District Municipality,ZA
89065099999,-71.3166666,-68.2833333,69.0,"FOSSIL BLUFF, AY",89065099999,"(-71.3166666, -68.2833333)",Ushuaia,Tierra del Fuego,,AR
71968099999,68.95,-137.22,56.0,"SHINGLE POINT, CA",71968099999,"(68.95, -137.22)",Fort McPherson,Northwest Territories,,CA
80144099999,5.690758,-76.641181,62.17,"EL CARANO, CO",80144099999,"(5.690758, -76.641181)",Quibdo,Choco,,CO
76840099999,16.2333333,-93.9,48.0,"ARRIAGA CHIS., MX",76840099999,"(16.2333333, -93.9)",Arriaga,Chiapas,,MX
72467393009,39.22803,-106.31625,3030.6,"LEADVILLE LAKE CO AIRPORT, CO US",72467393009,"(39.22803, -106.31625)",Leadville,Colorado,Lake County,US
48557599999,8.539617,99.944725,3.96,"NAKHON SI THAMMARAT, TH",48557599999,"(8.539617, 99.944725)",Nakhon Si Thammarat,Nakhon Si Thammarat,,TH
15425099999,44.55,27.4,52.0,"SLOBOZIA, RO",15425099999,"(44.55, 27.4)",Cosambesti,Ialomita,Comuna Cosambesti,RO
72757394928,48.11667,-98.9,439.2,"DEVILS LAKE MUNICIPAL AIRPORT, ND US",72757394928,"(48.11667, -98.9)",Devils Lake,North Dakota,Ramsey County,US
89592099999,-66.55,93.0166666,40.0,"MIRNYJ, AY",89592099999,"(-66.55, 93.0166666)",Port-aux-Francais,Kerguelen,,TF
99457099999,24.46,-81.88,0.0,"SAND KEY FL, US",99457099999,"(24.46, -81.88)",Key West,Florida,Monroe County,US
95954099999,-40.6666666,144.6833333,561.0,"CAPE GRIM, AS",95954099999,"(-40.6666666, 144.6833333)",Smithton,Tasmania,Circular Head,AU
72384023155,35.43424,-119.05524,149.3,"BAKERSFIELD AIRPORT, CA US",72384023155,"(35.43424, -119.05524)",Oildale,California,Kern County,US
64452099999,-2.6166667,16.2166667,312.0,"M POUYA, CF",64452099999,"(-2.6166667, 16.2166667)",Bolobo,Bandundu,,CD
72659604978,44.01778,-92.83139,397.8,"DODGE CENTER AIRPORT, MN US",72659604978,"(44.01778, -92.83139)",Dodge Center,Minnesota,Dodge County,US
74794612886,28.61667,-80.68333,3.0,"TITUSVILLE NASA SHUTTLE LANDING FACILITY, FL US",74794612886,"(28.61667, -80.68333)",Merritt Island,Florida,Brevard County,US
71467099999,72.0,-125.2666666,88.0,"SACHS HARBOUR CLIMATE NWT, CA",71467099999,"(72.0, -125.2666666)",Norman Wells,Northwest Territories,,CA
72641614921,43.21106,-90.18739,218.0,"LONE ROCK TRI CO AIRPORT, WI US",72641614921,"(43.21106, -90.18739)",Spring Green,Wisconsin,Sauk County,US
42420099999,26.5166666,93.9833333,95.0,"GOLAGHAT, IN",42420099999,"(26.5166666, 93.9833333)",Golaghat,Assam,Golaghat,IN
40635699999,36.2333333,43.9666666,408.73,"ERBIL INTERNATIONAL, IZ",40635699999,"(36.2333333, 43.9666666)",Erbil,Arbil,,IQ
99784899999,27.55,-92.49,39.0,"GARDEN BANKS 426 AUGER, LA US",99784899999,"(27.55, -92.49)",Cameron,Louisiana,Cameron Parish,US
7230099999,47.4833333,-0.6,50.0,"BEAUCOUZE, FR",07230099999,"(47.4833333, -0.6)",Avrille,Pays de la Loire,Departement de Maine-et-Loire,FR
12205099999,53.4,14.6166666,7.0,"SZCZECIN, PL",12205099999,"(53.4, 14.6166666)",Szczecin,West Pomeranian Voivodeship,Szczecin,PL
61277099999,13.3333333,-4.8333333,284.0,"SAN, ML",61277099999,"(13.3333333, -4.8333333)",San,Segou,,ML
72340503930,34.91667,-92.15,94.8,"LITTLE ROCK AFB, AR US",72340503930,"(34.91667, -92.15)",Little Rock Air Force Base,Arkansas,Pulaski County,US
72050100155,37.85,-76.883,41.1,"TAPPAHANNOCK ESSEX CO AIRPORT, VA US",72050100155,"(37.85, -76.883)",Tappahannock,Virginia,Essex County,US
95679099999,-35.3333333,138.5,386.0,"MOUNT TERRIBLE RADAR, AS",95679099999,"(-35.3333333, 138.5)",Aldinga,South Australia,Onkaparinga,AU
63791099999,-3.429406,37.074461,893.67,"KILIMANJARO INTERNATIONAL, TZ",63791099999,"(-3.429406, 37.074461)",Merelani,Arusha,,TZ
2623099999,55.8666666,13.6666666,114.0,"HORBY, SW",02623099999,"(55.8666666, 13.6666666)",Hoerby,Skane,Horby Kommun,SE
10200099999,53.391186,7.227408,0.6,"EMDEN, GM",10200099999,"(53.391186, 7.227408)",Emden,Lower Saxony,,DE
64387099999,-1.968628,30.13945,1481.02,"KIGALI INTERNATIONAL, RW",64387099999,"(-1.968628, 30.13945)",Kigali,Kigali,,RW
85405099999,-18.467,-70.317,29.0,"CHINCHORRO, CI",85405099999,"(-18.467, -70.317)",Arica,Arica y Parinacota,Provincia de Arica,CL
71521099999,50.65,-70.5166666,497.0,"MANOUANE EST QUE, CA",71521099999,"(50.65, -70.5166666)",Saint-Ambroise,Quebec,Saguenay/Lac-Saint-Jean,CA
17085099999,40.65,35.85,412.0,"AMASYA, TU",17085099999,"(40.65, 35.85)",Amasya,Amasya,,TR
68817099999,-33.9,18.4333333,2.0,"CAPE TOWN PORTNET, SF",68817099999,"(-33.9, 18.4333333)",Cape Town,Western Cape,City of Cape Town,ZA
36428099999,49.2,84.5166666,401.0,"ULKEN NARYN, KZ",36428099999,"(49.2, 84.5166666)",Zyryanovsk,East Kazakhstan,,KZ
99727199999,40.701,-74.014,10.0,"THE BATTERY, NY US",99727199999,"(40.701, -74.014)",New York City,New York,,US
40878099999,27.3333333,62.3333333,1195.0,"SARAVAN, IR",40878099999,"(27.3333333, 62.3333333)",Saravan,Sistan and Baluchestan,,IR
95812099999,-35.1166666,139.2666666,33.0,"MURRAY BRIDGE, AS",95812099999,"(-35.1166666, 139.2666666)",Murray Bridge,South Australia,Murray Bridge,AU
72356013968,36.19854,-95.87825,194.9,"TULSA INTERNATIONAL AIRPORT, OK US",72356013968,"(36.19854, -95.87825)",Owasso,Oklahoma,Tulsa County,US
2881099999,65.9833333,26.3666666,161.0,"RANUA AIRFIELD, FI",02881099999,"(65.9833333, 26.3666666)",Ranua,Lapland,Rovaniemi,FI
59855099999,19.2333333,110.4666666,25.0,"QIONGHAI, CH",59855099999,"(19.2333333, 110.4666666)",Qionghai,Hainan,,CN
7140099999,48.058142,1.376625,131.97,"CHATEAUDUN, FR",07140099999,"(48.058142, 1.376625)",Chateaudun,Centre,Departement d'Eure-et-Loir,FR
15080099999,47.025278,21.9025,141.73,"ORADEA, RO",15080099999,"(47.025278, 21.9025)",Nojorid,Bihor,Comuna Nojorid,RO
40080099999,33.411522,36.515558,615.69,"DAMASCUS INTERNATIONAL, SY",40080099999,"(33.411522, 36.515558)",Harran al `Awamid,Rif-dimashq,,SY
72788499999,46.305639,-119.304194,120.09,"RICHLAND AIRPORT, WA US",72788499999,"(46.305639, -119.304194)",Richland,Washington,Benton County,US
68026099999,-18.3666667,21.85,1000.0,"SHAKAWE, BC",68026099999,"(-18.3666667, 21.85)",Shakawe,North West,,BW
99727099999,39.35,-74.42,10.0,"ATLANTIC CITY, NJ US",99727099999,"(39.35, -74.42)",Atlantic City,New Jersey,Atlantic County,US
2286099999,63.791828,20.282758,7.31,"UMEA, SW",02286099999,"(63.791828, 20.282758)",Umea,Vaesterbotten,Umea Kommun,SE
63334099999,10.35,37.7166667,2476.0,"DEBRE MARCOS, ET",63334099999,"(10.35, 37.7166667)",Debre Mark'os,Amhara,,ET
74692503741,35.57028,-77.04972,11.6,"WARREN FIELD AIRPORT, NC US",74692503741,"(35.57028, -77.04972)",Washington,North Carolina,Beaufort County,US
2765099999,61.7,25.5,83.2,"LUHANKA JUDINSALO, FI",02765099999,"(61.7, 25.5)",Luhanka,Central Finland,Joutsa,FI
72616454728,44.36594,-71.55217,319.3,"WHITEFIELD MOUNT WASHINGTON REGIONAL AIRPORT, NH US",72616454728,"(44.36594, -71.55217)",Whitefield,New Hampshire,Coos County,US
72501504789,41.50908,-74.26458,108.2,"MONTGOMERY ORANGE CO AIRPORT, NY US",72501504789,"(41.50908, -74.26458)",Montgomery,New York,Orange County,US
28225099999,57.914517,56.021214,123.13,"BOLSHOYE SAVINO, RS",28225099999,"(57.914517, 56.021214)",Kultayevo,Perm,,RU
26238099999,57.9,25.3833333,12.0,"RUJIENA, LG",26238099999,"(57.9, 25.3833333)",Rujiena,Rujienas,,LV
72394023273,34.89403,-120.45216,74.2,"SANTA MARIA PUBLIC AIRPORT, CA US",72394023273,"(34.89403, -120.45216)",Orcutt,California,Santa Barbara County,US
72435003816,37.05635,-88.77425,124.1,"PADUCAH BARKLEY REGIONAL AIRPORT, KY US",72435003816,"(37.05635, -88.77425)",Massac,Kentucky,McCracken County,US
56763099999,25.7333333,101.8666666,1120.0,"YUANMOU, CH",56763099999,"(25.7333333, 101.8666666)",Yuanmou,Yunnan,,CN
76691399999,19.145931,-96.187267,27.43,"GENERAL HERIBERTO JARA INTERNATIONAL, MX",76691399999,"(19.145931, -96.187267)",Las Amapolas,Veracruz,Veracruz,MX
11389099999,48.1833333,15.6166666,273.0,"ST POELTEN LANDHAUS, AU",11389099999,"(48.1833333, 15.6166666)",Sankt Poelten,Lower Austria,Sankt Polten Stadt,AT
11340099999,47.3333333,12.7333333,1954.4,"SCHMITTENHOEHE, AU",11340099999,"(47.3333333, 12.7333333)",Viehhofen,Salzburg,Politischer Bezirk Zell am See,AT
42705599999,11.136839,75.9553,104.24,"CALICUT, IN",42705599999,"(11.136839, 75.9553)",Ferokh,Kerala,Kozhikode,IN
86630099999,-11.75,-49.05,288.5,"GURUPI, BR",86630099999,"(-11.75, -49.05)",Gurupi,Tocantins,Gurupi,BR
94213099999,-17.0166666,128.2166666,205.0,"WARMUN, AS",94213099999,"(-17.0166666, 128.2166666)",Halls Creek,Western Australia,Halls Creek,AU
48358099999,17.4333333,104.7833333,153.0,"NAKHON PHANOM AGROMET, TH",48358099999,"(17.4333333, 104.7833333)",Nakhon Phanom,Nakhon Phanom,,TH
72029653945,30.88556,-94.03472,64.9,"JASPER CO BELL FIELD AIRPORT, TX US",72029653945,"(30.88556, -94.03472)",Jasper,Texas,Jasper County,US
6693099999,47.2666666,9.1,623.0,"EBNAT KAPPEL, SZ",06693099999,"(47.2666666, 9.1)",Ebnat-Kappel,Saint Gallen,Wahlkreis Toggenburg,CH
6370099999,51.450139,5.374528,22.55,"EINDHOVEN, NL",06370099999,"(51.450139, 5.374528)",Oerle,North Brabant,Gemeente Veldhoven,NL
11176099999,47.4666666,15.3333333,527.0,"KAPFENBERG FLUGFELD, AU",11176099999,"(47.4666666, 15.3333333)",Sankt Marein im Muerztal,Styria,Politischer Bezirk Bruck-Muerzzuschlag,AT
88900099999,-54.0,-38.05,2.0,"BIRD ISLAND, SX",88900099999,"(-54.0, -38.05)",Grytviken,,,GS
43083099999,18.05,78.2666666,472.0,"MEDAK, IN",43083099999,"(18.05, 78.2666666)",Medak,Telangana,Medak,IN
72330003975,36.76973,-90.32241,99.6,"POPLAR BLUFF MUNICIPAL AIRPORT, MO US",72330003975,"(36.76973, -90.32241)",Poplar Bluff,Missouri,Butler County,US
94814099999,-35.2833333,138.9,58.0,"STRATHALBYN RACECOURSE, AS",94814099999,"(-35.2833333, 138.9)",Strathalbyn,South Australia,Alexandrina,AU
16560099999,39.251469,9.054283,3.96,"ELMAS, IT",16560099999,"(39.251469, 9.054283)",Elmas,Sardinia,Provincia di Cagliari,IT
27008099999,59.4,35.9,137.0,"BABAEVO, RS",27008099999,"(59.4, 35.9)",Babayevo,Vologda,,RU
93119099999,-37.008056,174.791667,7.01,"AUCKLAND INTERNATIONAL, NZ",93119099999,"(-37.008056, 174.791667)",Mangere,Auckland,Auckland,NZ
72248953911,32.71311,-96.26878,143.0,"TERRELL MUNICIPAL AIRPORT, TX US",72248953911,"(32.71311, -96.26878)",Terrell,Texas,Kaufman County,US
13459099999,42.7666666,18.95,647.0,"NIKSIC, MJ",13459099999,"(42.7666666, 18.95)",Niksic,Opstina Niksic,,ME
60101099999,35.726917,-5.916889,18.89,"IBN BATOUTA, MO",60101099999,"(35.726917, -5.916889)",Boukhalef,Tanger-Tetouan,Tanger-Assilah,MA
13173099999,45.3666666,20.4166666,82.0,"ZRENJANIN, RI",13173099999,"(45.3666666, 20.4166666)",Zrenjanin,Autonomna Pokrajina Vojvodina,Srednjebanatski Okrug,RS
67667099999,-15.55,28.25,1213.0,"MOUNT MAKULU, ZA",67667099999,"(-15.55, 28.25)",Lusaka,Lusaka,,ZM
72286903171,33.95282,-117.43523,257.7,"RIVERSIDE MUNICIPAL AIRPORT, CA US",72286903171,"(33.95282, -117.43523)",Riverside,California,Riverside County,US
72218604892,45.68889,-85.56611,203.0,"BEAVER ISLAND AIRPORT, MI US",72218604892,"(45.68889, -85.56611)",Charlevoix,Michigan,Charlevoix County,US
94355099999,-24.8833333,146.25,397.0,"TAMBO POST OFFICE, AS",94355099999,"(-24.8833333, 146.25)",Emerald,Queensland,Central Highlands,AU
86776099999,-18.9166666,-48.25,870.5,"UBERLANDIA, BR",86776099999,"(-18.9166666, -48.25)",Uberlandia,Minas Gerais,Uberlandia,BR
84773099999,-17.695036,-71.343964,21.94,"ILO, PE",84773099999,"(-17.695036, -71.343964)",Ilo,Moquegua,Provincia de Ilo,PE
99402499999,48.125,-123.44,5.0,"PORT ANGELES, WA US",99402499999,"(48.125, -123.44)",Port Angeles,Washington,Clallam County,US
35394899999,40.75,43.85,1524.0,"SHIRAK GEORGIA, GG",35394899999,"(40.75, 43.85)",Azatan,Shirak,,AM
70392699999,56.9333333,-154.1833333,13.0,"AKHIOK, AK US",70392699999,"(56.9333333, -154.1833333)",Kodiak Station,Alaska,Kodiak Island Borough,US
1416099999,58.95,5.7333333,72.0,"STAVANGER VAALAND, NO",01416099999,"(58.95, 5.7333333)",Stavanger,Rogaland,Stavanger,NO
8537099999,38.883278,-9.030097,3.35,"ALVERCA, PO",08537099999,"(38.883278, -9.030097)",Sobralinho,Lisbon,Vila Franca de Xira,PT
94449099999,-28.6166666,122.4166666,465.0,"LAVERTON AERO, AS",94449099999,"(-28.6166666, 122.4166666)",Kalgoorlie,Western Australia,Kalgoorlie/Boulder,AU
11801099999,48.4,17.15,207.0,"MALACKY, LO",11801099999,"(48.4, 17.15)",Malacky,Bratislavsky,Okres Malacky,SK
7579599999,44.921594,4.9699,160.02,"CHABEUIL, FR",07579599999,"(44.921594, 4.9699)",Malissard,Rhone-Alpes,Departement de la Drome,FR
91570099999,-18.4833333,163.0833333,5.0,"ILE SURPRISE, NC",91570099999,"(-18.4833333, 163.0833333)",Wala,North Province,Belep,NC
4005099999,66.15,-23.25,24.0,"BOLUNGAVIK, IC",04005099999,"(66.15, -23.25)",Isafjoerdur,Westfjords,,IS
99402599999,48.112,-122.758,5.0,"PORT TOWNSEND, WA US",99402599999,"(48.112, -122.758)",Port Townsend,Washington,Jefferson County,US
83479099999,-17.2166666,-46.8666666,711.0,"PARACATU, BR",83479099999,"(-17.2166666, -46.8666666)",Paracatu,Minas Gerais,Paracatu,BR
86892099999,-22.9761111,-42.0213889,5.5,"ARRAIAL DO CABO, BR",86892099999,"(-22.9761111, -42.0213889)",Arraial do Cabo,Rio de Janeiro,Arraial Do Cabo,BR
67983099999,-20.2,32.6166667,1132.0,"CHIPINGE, ZI",67983099999,"(-20.2, 32.6166667)",Chipinge,Manicaland,,ZW
11030099999,48.321083,16.11186,175.26,"TULLN, AU",11030099999,"(48.321083, 16.11186)",Tulbing,Lower Austria,Politischer Bezirk Tulln,AT
71592099999,73.0,-85.0166666,10.0,"ARCTIC BAY CS, CA",71592099999,"(73.0, -85.0166666)",Gjoa Haven,Nunavut,,CA
63452099999,9.417,41.0,1153.0,"AFDAM, ET",63452099999,"(9.417, 41.0)",Hirna,Oromiya,,ET
38353199999,43.061306,74.477556,627.27,"MANAS, KG",38353199999,"(43.061306, 74.477556)",Bishkek,Chuy,,KG
72511814751,40.21843,-76.85521,102.1,"HARRISBURG CAPITAL CITY AIRPORT, PA US",72511814751,"(40.21843, -76.85521)",Steelton,Pennsylvania,Dauphin County,US
72595524259,41.77373,-122.46825,806.1,"MONTAGUE SISKIYOU AIRPORT, CA US",72595524259,"(41.77373, -122.46825)",Montague,California,Siskiyou County,US
42807099999,22.5333333,88.3333333,6.0,"KOLKATA ALIPORE, IN",42807099999,"(22.5333333, 88.3333333)",Bara Bazar,West Bengal,Kolkata,IN
15033099999,47.6,24.65,1786.0,"IEZER, RO",15033099999,"(47.6, 24.65)",Borsa,Maramures,Comuna Borsa,RO
71889099999,49.463056,-119.602222,344.11,"PENTICTON, CA",71889099999,"(49.463056, -119.602222)",Penticton,British Columbia,,CA
72035154919,41.22611,-92.49083,256.0,"OSKALOOSA MUNICIPAL AIRPORT, IA US",72035154919,"(41.22611, -92.49083)",Eddyville,Iowa,Wapello County,US
71840099999,49.4,-98.3166666,341.0,"DEERWOOD RCS MAN, CA",71840099999,"(49.4, -98.3166666)",Morden,Manitoba,,CA
2832099999,62.2333333,30.35,90.0,"TOHMAJARVI KEMIE, FI",02832099999,"(62.2333333, 30.35)",Tohmajaervi,North Karelia,Keski-Karjala,FI
47425099999,42.7752,141.692283,24.99,"NEW CHITOSE, JA",47425099999,"(42.7752, 141.692283)",Chitose,Hokkaido,,JP
38954099999,37.5,71.5,2077.0,"KHOROG, TI",38954099999,"(37.5, 71.5)",Khorugh,Gorno-Badakhshan,,TJ
63980099999,-4.674342,55.521839,3.04,"SEYCHELLES INTERNATIONAL, SE",63980099999,"(-4.674342, 55.521839)",Cascade,Cascade,,SC
28775199999,54.4,68.4,115.0,"JAVLENKA, KZ",28775199999,"(54.4, 68.4)",Yavlenka,Soltustik Qazaqstan,,KZ
33041099999,52.527022,31.016692,143.86,"GOMEL, BO",33041099999,"(52.527022, 31.016692)",Kastsyukowka,Gomel,,BY
33088099999,51.2833333,26.6166666,156.0,"SARNY, UP",33088099999,"(51.2833333, 26.6166666)",Sarny,Rivne,,UA
57832099999,26.9666666,108.6666666,631.0,"SANSUI, CH",57832099999,"(26.9666666, 108.6666666)",Qinglang,Guizhou Sheng,,CN
17200099999,38.435347,38.091006,861.97,"ERHAC, TU",17200099999,"(38.435347, 38.091006)",Akcadag,Malatya,,TR
64758099999,12.1833333,18.6833333,430.0,"MONGO, CD",64758099999,"(12.1833333, 18.6833333)",Mongo,Guera,,TD
72751704932,44.75583,-94.08111,302.4,"GLENCOE MUNICIPAL AIRPORT, MN US",72751704932,"(44.75583, -94.08111)",Glencoe,Minnesota,McLeod County,US
74788012810,27.85,-82.51667,4.3,"MACDILL AFB, FL US",74788012810,"(27.85, -82.51667)",Gandy,Florida,Pinellas County,US
76698099999,19.5666667,-88.05,10.0,"FELIPE CARRILLO PUERTO Q ROO, MX",76698099999,"(19.5666667, -88.05)",Felipe Carrillo Puerto,Quintana Roo,,MX
72281703068,38.76667,-104.3,1837.9,"BULLSEYE AUXILIARY AIRFIELD USAFA, CO US",72281703068,"(38.76667, -104.3)",Ellicott,Colorado,El Paso County,US
72507554768,42.69729,-73.1696,197.0,"NORTH ADAMS HARRIMAN AIRPORT, MA US",72507554768,"(42.69729, -73.1696)",Williamstown,Massachusetts,Berkshire County,US
38353099999,42.85,74.5333333,760.0,"BISHKEK, KG",38353099999,"(42.85, 74.5333333)",Bishkek,Chuy,,KG
10616099999,49.948672,7.263892,502.61,"FRANKFURT HAHN, GM",10616099999,"(49.948672, 7.263892)",Lautzenhausen,Rheinland-Pfalz,,DE
72533704807,41.61667,-87.41667,180.1,"GARY, IN US",72533704807,"(41.61667, -87.41667)",East Chicago,Indiana,Lake County,US
72540704854,45.01657,-84.68942,405.9,"GAYLORD OTSEGO CO AIRPORT, MI US",72540704854,"(45.01657, -84.68942)",Gaylord,Michigan,Otsego County,US
26242099999,58.307461,26.690428,66.75,"TARTU, EN",26242099999,"(58.307461, 26.690428)",Ulenurme,Tartu,UElenurme vald,EE
87016099999,-23.152779,-64.32917,356.0,"ORAN, AR",87016099999,"(-23.152779, -64.32917)",San Ramon de la Nueva Oran,Salta,,AR
2974099999,60.317222,24.963333,54.55,"HELSINKI VANTAA, FI",02974099999,"(60.317222, 24.963333)",Vantaa,Uusimaa,Helsinki,FI
71906099999,58.1,-68.4166666,39.31,"KUUJJUAQ A, CA",71906099999,"(58.1, -68.4166666)",Labrador City,Newfoundland and Labrador,,CA
74791593718,33.81618,-78.72043,8.8,"NORTH MYRTLE BEACH, SC US",74791593718,"(33.81618, -78.72043)",North Myrtle Beach,South Carolina,Horry County,US
38812099999,38.8,65.7166666,376.0,"KARSHI, UZ",38812099999,"(38.8, 65.7166666)",Beshkent,Qashqadaryo,,UZ
8014399999,39.5833333,-0.45,50.0,"VALENCIA, SP",08014399999,"(39.5833333, -0.45)",Betera,Valencia,Provincia de Valencia,ES
99737999999,28.2,-117.35,4.0,"SAND ISLAND MIDWAY, US",99737999999,"(28.2, -117.35)",Luis Rodriguez (El Vergel),Baja California,Ensenada,MX
17170099999,38.468219,43.3323,1670.3,"VAN, TU",17170099999,"(38.468219, 43.3323)",Van,Van,,TR
31102099999,57.65,125.9666666,1204.0,"KANKU, RS",31102099999,"(57.65, 125.9666666)",Lebedinyy,Sakha,,RU
42170099999,28.25,74.9166666,291.0,"CHURU, IN",42170099999,"(28.25, 74.9166666)",Churu,Rajasthan,Churu,IN
59158099999,24.15,120.6833333,78.0,"TAIZHONG, CH",59158099999,"(24.15, 120.6833333)",Taichung,Taiwan,Taichung City,TW
97430099999,0.831414,127.381486,14.93,"BABULLAH, ID",97430099999,"(0.831414, 127.381486)",Ternate,Maluku Utara,,ID
71137099999,49.0666666,-107.5833333,796.0,"VAL MARIE SOUTHEAST, CA",71137099999,"(49.0666666, -107.5833333)",Malta,Montana,Phillips County,US
7283099999,47.85,5.3333333,467.0,"LANGRES, FR",07283099999,"(47.85, 5.3333333)",Langres,Champagne-Ardenne,Departement de la Haute-Marne,FR
34727099999,46.8,38.2666666,3.0,"EJSK, RS",34727099999,"(46.8, 38.2666666)",Yeysk,Krasnodarskiy,,RU
47755099999,34.9,132.0666666,20.9,"HAMADA, JA",47755099999,"(34.9, 132.0666666)",Hamada,Shimane,,JP
8014299999,42.2,-1.45,295.0,"BARDENAS REALES, SP",08014299999,"(42.2, -1.45)",Arguedas,Navarre,Provincia de Navarra,ES
28319099999,57.0833333,54.75,131.0,"NOZOVKA, RS",28319099999,"(57.0833333, 54.75)",Yelovo,Perm,,RU
95603099999,-31.6166666,117.7166666,250.0,"KELLERBERRIN, AS",95603099999,"(-31.6166666, 117.7166666)",Cunderdin,Western Australia,Cunderdin,AU
59644099999,21.4833333,109.1,16.0,"BEIHAI, CH",59644099999,"(21.4833333, 109.1)",Beihai,Guangxi Zhuangzu Zizhiqu,,CN
71301099999,48.15,-80.0,324.0,"KIRKLAND LAKE CS ONT, CA",71301099999,"(48.15, -80.0)",Kirkland Lake,Ontario,,CA
72515594761,42.48333,-76.46667,335.0,"ITHACA TOMPKINS CNTY, NY US",72515594761,"(42.48333, -76.46667)",Lansing,New York,Tompkins County,US
36208099999,50.3333333,83.55,811.0,"LENINOGORSK, KZ",36208099999,"(50.3333333, 83.55)",Ridder,East Kazakhstan,,KZ
6285099999,53.5666666,6.4,0.0,"HUIBERTGAT WP, NL",06285099999,"(53.5666666, 6.4)",Ulrum,Groningen,Gemeente De Marne,NL
1370099999,61.5166666,9.4,928.0,"SKABU, NO",01370099999,"(61.5166666, 9.4)",Otta,Oppland,Sel,NO
94605099999,-32.5166666,115.7166666,4.0,"MANDURAH, AS",94605099999,"(-32.5166666, 115.7166666)",Mandurah,Western Australia,Mandurah,AU
13279099999,44.3666666,20.95,122.0,"SMEDEREVSKA PALANKA, RI",13279099999,"(44.3666666, 20.95)",Smederevska Palanka,Central Serbia,Podunavski Okrug,RS
43340099999,11.75,78.1666666,1463.0,"YERCAUD, IN",43340099999,"(11.75, 78.1666666)",Salem,Tamil Nadu,Salem,IN
94119099999,-11.4,130.4166666,19.0,"PIRLANGIMPI, AS",94119099999,"(-11.4, 130.4166666)",Nightcliff,Northern Territory,Darwin,AU
72458013984,39.55127,-97.65077,444.3,"CONCORDIA ASOS, KS US",72458013984,"(39.55127, -97.65077)",Concordia,Kansas,Cloud County,US
72203812897,26.15498,-81.77514,2.0,"NAPLES MUNICIPAL AIRPORT, FL US",72203812897,"(26.15498, -81.77514)",Naples,Florida,Collier County,US
60517099999,35.1,-1.8666666,5.0,"GHAZAOUET, AG",60517099999,"(35.1, -1.8666666)",Nedroma,Tlemcen,,DZ
1146099999,66.2333333,13.8833333,5.0,"SKAMDAL, NO",01146099999,"(66.2333333, 13.8833333)",Korgen,Nordland,Hemnes,NO
30935099999,50.3666666,108.75,771.0,"KRASNYJ CHIKOJ, RS",30935099999,"(50.3666666, 108.75)",Krasnyy Chikoy,Transbaikal Territory,,RU
48863099999,15.1333333,108.7833333,9.0,"QUANG NGAI, VM",48863099999,"(15.1333333, 108.7833333)",Quang Ngai,Quang Ngai,,VN
94928099999,-36.9166666,149.2333333,705.0,"BOMBALA THREEY STREET, AS",94928099999,"(-36.9166666, 149.2333333)",Bombala,New South Wales,Bombala,AU
72235413927,32.33756,-90.2214,101.7,"JACKSON HAWKINS FIELD, MS US",72235413927,"(32.33756, -90.2214)",Jackson,Mississippi,Hinds County,US
11083099999,48.5666666,16.3666666,451.0,"LEISER BERGE, AU",11083099999,"(48.5666666, 16.3666666)",Niederleis,Lower Austria,Politischer Bezirk Mistelbach,AT
99497399999,45.28,-86.98,188.0,"N PIER DEATHS DOOR, WI US",99497399999,"(45.28, -86.98)",Escanaba,Michigan,Delta County,US
43495099999,6.0333333,80.2166666,13.0,"GALLE, CE",43495099999,"(6.0333333, 80.2166666)",Galle,Southern,,LK
3469099999,52.8666667,0.15,3.0,"HOLBEACH AUT, UK",03469099999,"(52.8666667, 0.15)",Sutton Bridge,England,Lincolnshire,GB
16206099999,42.759722,11.071944,4.57,"GROSSETO, IT",16206099999,"(42.759722, 11.071944)",Grosseto,Tuscany,Provincia di Grosseto,IT
65274099999,6.6,9.3166666,284.0,"OBUDU, NI",65274099999,"(6.6, 9.3166666)",Obudu,Cross River,,NG
91350099999,6.6666667,159.7833333,2.0,"MWOAKILLO CAROLINE IS, FM",91350099999,"(6.6666667, 159.7833333)",Mokil,Pohnpei,Mokil Municipality,FM
72266693943,31.8,-98.95,419.7,"BROWNWOOD MUNICIPAL AIRPORT, TX US",72266693943,"(31.8, -98.95)",Early,Texas,Brown County,US
84686099999,-13.535722,-71.938781,3310.12,"TENIENTE ALEJANDRO VELASCO ASTETE INTERNATIONAL, PE",84686099999,"(-13.535722, -71.938781)",Cusco,Cusco,Provincia de Cusco,PE
74702023110,36.33333,-119.95,70.7,"LEMOORE REEVES NAS, CA US",74702023110,"(36.33333, -119.95)",Lemoore Station,California,Kings County,US
99825499999,55.0666666,-162.3333333,5.0,"KING COVE, AK US",99825499999,"(55.0666666, -162.3333333)",Sand Point,Alaska,Aleutians East Borough,US
94743099999,-33.6166666,150.2666666,1080.0,"MOUNT BOYCE, AS",94743099999,"(-33.6166666, 150.2666666)",Blackheath,New South Wales,Blue Mountains Municipality,AU
60667099999,24.6,10.2166666,719.0,"TINALKOUM, AG",60667099999,"(24.6, 10.2166666)",Ghat,Sha`biyat Ghat,,LY
86360099999,-31.4333333,-57.9833333,56.99,"NUEVA HESPERIDES INTERNATIONAL, UY",86360099999,"(-31.4333333, -57.9833333)",Salto,Salto,,UY
99999913752,38.9913,-76.4891,1.8,"ANNAPOLIS UNITED STATES NAVAL ACADEMY ASOS, MD US",99999913752,"(38.9913, -76.4891)",Naval Academy,Maryland,Anne Arundel County,US
13615099999,41.414742,19.720561,38.4,"TIRANA RINAS, AL",13615099999,"(41.414742, 19.720561)",Nikel,Durres,Rrethi i Krujes,AL
72221513884,30.77715,-86.51938,47.1,"CRESTVIEW FAA AP, FL US",72221513884,"(30.77715, -86.51938)",Crestview,Florida,Okaloosa County,US
6620099999,47.6833333,8.6166666,437.0,"SCHAFFHAUSEN, SZ",06620099999,"(47.6833333, 8.6166666)",Neuhausen,Schaffhausen,Bezirk Schaffhausen,CH
54236099999,42.4166666,122.5333333,84.0,"ZHANGWU, CH",54236099999,"(42.4166666, 122.5333333)",Xizhahaqi,Liaoning,,CN
78333499999,21.616453,-81.545989,3.04,"VILO ACUNA INTERNATIONAL, CU",78333499999,"(21.616453, -81.545989)",Jaguey Grande,Matanzas,,CU
72479723176,38.42251,-113.01089,1533.5,"MILFORD MUNICIPAL AIRPORT, UT US",72479723176,"(38.42251, -113.01089)",Milford,Utah,Beaver County,US
3005099999,60.1333333,-1.1833333,84.0,"LERWICK, UK",03005099999,"(60.1333333, -1.1833333)",Lerwick,Scotland,Shetland Islands,GB
72371003162,36.92112,-111.44874,1307.0,"PAGE MUNICIPAL AIRPORT, AZ US",72371003162,"(36.92112, -111.44874)",Page,Arizona,Coconino County,US
86967099999,-28.7513889,-50.0583333,1245.5,"SAO JOSE DOS AUSENTES, BR",86967099999,"(-28.7513889, -50.0583333)",Sao Joaquim,Santa Catarina,Sao Joaquim,BR
25594099999,64.378139,-173.243306,21.94,"PROVIDENIYA BAY, RS",25594099999,"(64.378139, -173.243306)",Provideniya,Chukotskiy Avtonomnyy Okrug,,RU
48925099999,20.6833333,102.0,550.0,"OUDOMXAY, LA",48925099999,"(20.6833333, 102.0)",Muang Xay,Oudomxai,,LA
